[
  {
    "queryKey": [
      "user",
      "me"
    ],
    "state": {
      "data": {
        "username": "",
        "name": "",
        "email": "",
        "privilege": "1,2,3,4,5,6,7,8,",
        "id": 999999,
        "is_active": true,
        "last_name": "",
        "last_login": "",
        "modules": [
          "IN_ACQUISITIONS",
          "PITCHBOOK",
          "IN_DISPOSITIONS",
          "IN_DEBT",
          "WEBHOOKS",
          "IN_VESTOR",
          "IN_SIGHT",
          "IN_TOOLS",
          "IN_ASSETS"
        ]
      },
      "dataUpdateCount": 1,
      "dataUpdatedAt": 1742303383892,
      "error": null,
      "errorUpdateCount": 0,
      "errorUpdatedAt": 0,
      "fetchFailureCount": 0,
      "fetchFailureReason": null,
      "fetchMeta": null,
      "isInvalidated": false,
      "status": "success",
      "fetchStatus": "idle"
    }
  },
  {
    "queryKey": [
      "filters",
      "assets"
    ],
    "state": {
      "data": [
        {
          "key": "fund",
          "name": "fund",
          "options": [
            {
              "label": " 17 West",
              "value": " 17 West"
            },
            {
              "label": "Industrial Fund Example",
              "value": "Industrial Fund Example"
            },
            {
              "label": " Jupiter",
              "value": " Jupiter"
            },
            {
              "label": "Another Fund Example",
              "value": " Development Partners"
            },
            {
              "label": "ABC Portfolio",
              "value": "ABC Portfolio"
            },
            {
              "label": "JPQ",
              "value": "JPQ"
            },
            {
              "label": "Real Estate III",
              "value": "Real Estate III"
            },
            {
              "label": "VICO IVA",
              "value": "VICO IVA"
            },
            {
              "label": "DAY III",
              "value": "DAY III"
            },
            {
              "label": "Fund DC",
              "value": "Fund DC"
            },
            {
              "label": "CCD IO",
              "value": "CCD IO"
            },
            {
              "label": "Real Estate Original Fund",
              "value": "Real Estate Original Fund"
            },
            {
              "label": "VICO IV",
              "value": "VICO IV"
            },
            {
              "label": " Glenmind",
              "value": " Glenmind"
            },
            {
              "label": " Somerise",
              "value": " Somerise"
            },
            {
              "label": "TR Develop",
              "value": "TR Develop"
            }
          ]
        },
        {
          "key": "region",
          "name": "region",
          "options": [
            {
              "label": "Southeast",
              "value": "Southeast"
            },
            {
              "label": "Mid Atlantic",
              "value": "Mid Atlantic"
            },
            {
              "label": "West",
              "value": "West"
            },
            {
              "label": "Northeast",
              "value": "Northeast"
            },
            {
              "label": "Mountain",
              "value": "Mountain"
            },
            {
              "label": "Midwest",
              "value": "Midwest"
            }
          ]
        },
        {
          "key": "status",
          "name": "status",
          "options": [
            {
              "label": "inactive",
              "value": "inactive"
            },
            {
              "label": "active",
              "value": "active"
            },
            {
              "label": "all",
              "value": "all"
            }
          ]
        },
        {
          "key": "property-under-management-timeline-item_type",
          "name": "property-under-management-timeline-item_type",
          "options": [
            {
              "label": "Loan - Maturity",
              "value": "loan_maturity"
            },
            {
              "label": "Loan - Critical Date",
              "value": "loan_critical_date"
            },
            {
              "label": "Asset - Critical Date",
              "value": "asset_critical_date"
            },
            {
              "label": "Lease - Expiration",
              "value": "lease_expiration"
            }
          ]
        },
        {
          "key": "property-under-management-attachment_type",
          "name": "property-under-management-attachment_type",
          "options": [
            {
              "label": "PROPERTY PICTURE",
              "value": "PROPERTY_PICTURE"
            }
          ]
        },
        {
          "key": "fund-strategy_type",
          "name": "fund-strategy_type",
          "options": [
            {
              "label": "Disposition Strategy",
              "value": "disposition"
            },
            {
              "label": "Leasing Strategy",
              "value": "leasing"
            },
            {
              "label": "Debt Strategy",
              "value": "debt"
            },
            {
              "label": "CapEx Strategy",
              "value": "capex"
            }
          ]
        }
      ],
      "dataUpdateCount": 1,
      "dataUpdatedAt": 1742303384213,
      "error": null,
      "errorUpdateCount": 0,
      "errorUpdatedAt": 0,
      "fetchFailureCount": 0,
      "fetchFailureReason": null,
      "fetchMeta": null,
      "isInvalidated": false,
      "status": "success",
      "fetchStatus": "idle"
    }
  },
  {
    "queryKey": [
      "properties",
      "propertiesGeography",
      {
        "status": "active",
        "page_size": "-1"
      }
    ],
    "state": {
      "data": {
        "next": null,
        "previous": null,
        "count": 79,
        "total_pages": 1,
        "results": [
          {
            "yardi_property_code": "1234-xyz",
            "fund_name": "Industrial Fund Example",
            "address": "1698 ALTON RD",
            "city": "Miami Beach",
            "state": "FL",
            "region": null,
            "latitude": 25.557984917980505,
            "longitude": -79.06697180136047,
            "rentable_building_area": 0
          },
          {
            "yardi_property_code": "1234-xyz",
            "fund_name": "Industrial Fund Example",
            "address": "1698 ALTON RD",
            "city": "MIAMI BEACH",
            "state": "FL",
            "region": "Southeast",
            "latitude": 25.18102323644608,
            "longitude": -77.83423529091864,
            "rentable_building_area": 70347
          },
          {
            "yardi_property_code": "1234-xyz",
            "fund_name": "Industrial Fund Example",
            "address": "4100 NEWBRUNSWICK AVE",
            "city": "Piscataway",
            "state": "NJ",
            "region": null,
            "latitude": 40.35243724159801,
            "longitude": -74.79672687686343,
            "rentable_building_area": 0
          },
          {
            "yardi_property_code": "1234-xyz",
            "fund_name": "Industrial Fund Example",
            "address": "20539 Macejkovic Extension",
            "city": "",
            "state": "NJ",
            "region": null,
            "latitude": 30.3398,
            "longitude": 34.0437,
            "rentable_building_area": 0
          },
          {
            "yardi_property_code": "1234-xyz",
            "fund_name": "Industrial Fund Example",
            "address": "4336 Ruecker Harbor",
            "city": "",
            "state": "",
            "region": "Mid Atlantic",
            "latitude": 30.7597,
            "longitude": -163.2234,
            "rentable_building_area": 134108
          },
          {
            "yardi_property_code": "1234-xyz",
            "fund_name": "Industrial Fund Example",
            "address": "926 Lue Brook",
            "city": "",
            "state": "",
            "region": "Mid Atlantic",
            "latitude": -10.2749,
            "longitude": -41.3795,
            "rentable_building_area": 252920
          },
          {
            "yardi_property_code": "1234-xyz",
            "fund_name": "Industrial Fund Example",
            "address": "30610 S KAVANAUGH RD",
            "city": "WILMINGTON",
            "state": "IL",
            "region": "Midwest",
            "latitude": 41.023740250001595,
            "longitude": -87.24648779136324,
            "rentable_building_area": 628772
          },
          {
            "yardi_property_code": "1234-xyz",
            "fund_name": "Industrial Fund Example",
            "address": "3323 NE 163RD ST",
            "city": "MIAMI",
            "state": "FL",
            "region": null,
            "latitude": 26.088508099291015,
            "longitude": -81.22455642298611,
            "rentable_building_area": 0
          },
          {
            "yardi_property_code": "1234-xyz",
            "fund_name": "Industrial Fund Example",
            "address": "24945 W DESIGN RD",
            "city": "WILMINGTON",
            "state": "IL",
            "region": "Midwest",
            "latitude": 41.2718556767057,
            "longitude": -86.37243889973202,
            "rentable_building_area": 96397
          },
          {
            "yardi_property_code": "1234-xyz",
            "fund_name": "Industrial Fund Example",
            "address": "3323 NE 163RD ST",
            "city": "MIAMI",
            "state": "FL",
            "region": null,
            "latitude": 26.23772972846866,
            "longitude": -80.19659817591882,
            "rentable_building_area": 186941
          },
          {
            "yardi_property_code": "1234-xyz",
            "fund_name": "Industrial Fund Example",
            "address": "3323 NE 163RD ST",
            "city": "MIAMI",
            "state": "FL",
            "region": null,
            "latitude": 25.901206130080237,
            "longitude": -79.82755634804023,
            "rentable_building_area": 79274
          },
          {
            "yardi_property_code": "1234-xyz",
            "fund_name": "Industrial Fund Example",
            "address": "3323 NE 163RD ST",
            "city": "MIAMI",
            "state": "FL",
            "region": null,
            "latitude": 26.47911762888213,
            "longitude": -77.46519168160009,
            "rentable_building_area": 160296
          },
          {
            "yardi_property_code": "1234-xyz",
            "fund_name": "Industrial Fund Example",
            "address": "6700 Hardeson Road",
            "city": "Everett",
            "state": "WA",
            "region": "West",
            "latitude": 48.29416505369768,
            "longitude": -121.1766113519043,
            "rentable_building_area": 95675
          },
          {
            "yardi_property_code": "1234-xyz",
            "fund_name": "Industrial Fund Example",
            "address": "1111 SW 30th Ave",
            "city": "Deerfield Beach",
            "state": "FL",
            "region": "Southeast",
            "latitude": 26.51054170939216,
            "longitude": -78.32730601854551,
            "rentable_building_area": 139898
          },
          {
            "yardi_property_code": "1234-xyz",
            "fund_name": "Industrial Fund Example",
            "address": "1600 NW 165th Street",
            "city": "Miami Gardens",
            "state": "FL",
            "region": "Southeast",
            "latitude": 25.67331723606597,
            "longitude": -81.31280320670882,
            "rentable_building_area": 62133
          },
          {
            "yardi_property_code": "1234-xyz",
            "fund_name": "Industrial Fund Example",
            "address": "2340 Cousteau Ct",
            "city": "Vista",
            "state": "CA",
            "region": "West",
            "latitude": 32.92320227412942,
            "longitude": -114.96110318613724,
            "rentable_building_area": 172286
          },
          {
            "yardi_property_code": "1234-xyz",
            "fund_name": "Industrial Fund Example",
            "address": "3000-3060 SW 2nd Avenue",
            "city": "Fort Lauderdale",
            "state": "FL",
            "region": "Southeast",
            "latitude": 26.544733298195236,
            "longitude": -76.29321232259431,
            "rentable_building_area": 82552
          },
          {
            "yardi_property_code": "1234-xyz",
            "fund_name": "Industrial Fund Example",
            "address": "55 Shepherds Lane",
            "city": "Totowa",
            "state": "NJ",
            "region": "Northeast",
            "latitude": 40.70724035545868,
            "longitude": -72.62778972053394,
            "rentable_building_area": 193991
          },
          {
            "yardi_property_code": "1234-xyz",
            "fund_name": "Industrial Fund Example",
            "address": "50 Jiffy Road",
            "city": "Franklin Township",
            "state": "NJ",
            "region": "Northeast",
            "latitude": 39.95841742153036,
            "longitude": -72.74383295601946,
            "rentable_building_area": 97244
          },
          {
            "yardi_property_code": "1234-xyz",
            "fund_name": "Industrial Fund Example",
            "address": "800-900 International Parkway",
            "city": "Sunrise",
            "state": "FL",
            "region": "Southeast",
            "latitude": 25.522836695300114,
            "longitude": -78.92207529371767,
            "rentable_building_area": 174984
          },
          {
            "yardi_property_code": "1234-xyz",
            "fund_name": "Industrial Fund Example",
            "address": "14420-14434 Albemarle Point Place",
            "city": "Chantilly",
            "state": "VA",
            "region": "Mid Atlantic",
            "latitude": 38.48586268575656,
            "longitude": -78.28992174298142,
            "rentable_building_area": 363741
          },
          {
            "yardi_property_code": "1234-xyz",
            "fund_name": "Industrial Fund Example",
            "address": "9036 Smith Street",
            "city": "",
            "state": "",
            "region": "Mid Atlantic",
            "latitude": -36.2116,
            "longitude": 75.5252,
            "rentable_building_area": 237965
          },
          {
            "yardi_property_code": "1234-xyz",
            "fund_name": "Industrial Fund Example",
            "address": "Business Logistics Park - Building 8",
            "city": "Wilmington",
            "state": "IL",
            "region": null,
            "latitude": 70.4826,
            "longitude": -95.1818,
            "rentable_building_area": 0
          },
          {
            "yardi_property_code": "1234-xyz",
            "fund_name": "Industrial Fund Example",
            "address": "29700 S GRAASKAMP RD",
            "city": "WILMINGTON",
            "state": "IL",
            "region": "Midwest",
            "latitude": 41.05265787672511,
            "longitude": -88.27101053048601,
            "rentable_building_area": 1398833
          },
          {
            "yardi_property_code": "1234-xyz",
            "fund_name": "Industrial Fund Example",
            "address": "3323 NE 163rd St.",
            "city": "Miami",
            "state": "FL",
            "region": null,
            "latitude": 25.912112128963784,
            "longitude": -79.43799892462827,
            "rentable_building_area": 129754
          },
          {
            "yardi_property_code": "1234-xyz",
            "fund_name": "Industrial Fund Example",
            "address": "3323 NE 163RD ST",
            "city": "MIAMI",
            "state": "FL",
            "region": null,
            "latitude": 26.007602494693263,
            "longitude": -79.72945679397404,
            "rentable_building_area": 40210
          },
          {
            "yardi_property_code": "1234-xyz",
            "fund_name": "Industrial Fund Example",
            "address": "11 Enterprise Avenue North",
            "city": "Secaucus",
            "state": "NJ",
            "region": "Northeast",
            "latitude": 41.082216699428486,
            "longitude": -71.0688986329154,
            "rentable_building_area": 64306
          },
          {
            "yardi_property_code": "1234-xyz",
            "fund_name": "Industrial Fund Example",
            "address": "35 O'Brien Street",
            "city": "Kearny",
            "state": "NJ",
            "region": "Northeast",
            "latitude": 41.177416964590215,
            "longitude": -72.47813305070258,
            "rentable_building_area": 111343
          },
          {
            "yardi_property_code": "1234-xyz",
            "fund_name": "Industrial Fund Example",
            "address": "9950 NW 25th St",
            "city": "Miami",
            "state": "FL",
            "region": "Southeast",
            "latitude": 25.805872872574014,
            "longitude": -78.94023817136656,
            "rentable_building_area": 83789
          },
          {
            "yardi_property_code": "1234-xyz",
            "fund_name": "Industrial Fund Example",
            "address": "555-589 Monster Road SW",
            "city": "Renton",
            "state": "WA",
            "region": "West",
            "latitude": 47.352253443955135,
            "longitude": -121.33489790150173,
            "rentable_building_area": 184723
          },
          {
            "yardi_property_code": "1234-xyz",
            "fund_name": "Industrial Fund Example",
            "address": "15325 Stafford Street",
            "city": "City of Industry",
            "state": "CA",
            "region": "West",
            "latitude": 34.55288031675435,
            "longitude": -118.45459105301721,
            "rentable_building_area": 115903
          },
          {
            "yardi_property_code": "1234-xyz",
            "fund_name": "Industrial Fund Example",
            "address": "1121 NW 31st Avenue",
            "city": "Pompano Beach",
            "state": "FL",
            "region": "Southeast",
            "latitude": 26.487449068050736,
            "longitude": -79.8356884396935,
            "rentable_building_area": 70888
          },
          {
            "yardi_property_code": "1234-xyz",
            "fund_name": "Industrial Fund Example",
            "address": "182-20 Liberty Ave",
            "city": "Jamaica",
            "state": "NY",
            "region": "Northeast",
            "latitude": 41.07789092581026,
            "longitude": -71.31286098379644,
            "rentable_building_area": 214025
          },
          {
            "yardi_property_code": "1234-xyz",
            "fund_name": "Industrial Fund Example",
            "address": "1301 NW 3 Street",
            "city": "Deerfield Beach",
            "state": "FL",
            "region": "Southeast",
            "latitude": 26.567631552449132,
            "longitude": -79.4900416814124,
            "rentable_building_area": 94227
          },
          {
            "yardi_property_code": "1234-xyz",
            "fund_name": "Industrial Fund Example",
            "address": "225 Radio Drive",
            "city": "Woodbury",
            "state": "MN",
            "region": null,
            "latitude": 45.34879739798312,
            "longitude": -89.85216559636854,
            "rentable_building_area": 0
          },
          {
            "yardi_property_code": "1234-xyz",
            "fund_name": "Industrial Fund Example",
            "address": "4778 Reichert Knoll",
            "city": "",
            "state": "",
            "region": null,
            "latitude": -61.463,
            "longitude": 35.2511,
            "rentable_building_area": 0
          },
          {
            "yardi_property_code": "1234-xyz",
            "fund_name": "Industrial Fund Example",
            "address": "Mansfield Road West",
            "city": "Mansfield",
            "state": "NJ",
            "region": null,
            "latitude": 24.804,
            "longitude": -158.8364,
            "rentable_building_area": 451363
          },
          {
            "yardi_property_code": "1234-xyz",
            "fund_name": "Industrial Fund Example",
            "address": "3323 NE 163RD ST",
            "city": "MIAMI",
            "state": "FL",
            "region": null,
            "latitude": 25.92421394080319,
            "longitude": -78.4227659169446,
            "rentable_building_area": 0
          },
          {
            "yardi_property_code": "1234-xyz",
            "fund_name": "Industrial Fund Example",
            "address": "12633 Georgia Avenue",
            "city": "Silver Spring",
            "state": "MD",
            "region": "Mid Atlantic",
            "latitude": 39.23270507714584,
            "longitude": -75.94021698520598,
            "rentable_building_area": 0
          },
          {
            "yardi_property_code": "1234-xyz",
            "fund_name": "Industrial Fund Example",
            "address": "3680-3863 Centerview Drive",
            "city": "Chantilly",
            "state": "VA",
            "region": "Mid Atlantic",
            "latitude": 38.37569801949152,
            "longitude": -76.85761795435184,
            "rentable_building_area": 358830
          },
          {
            "yardi_property_code": "1234-xyz",
            "fund_name": "Industrial Fund Example",
            "address": "3323 NE 163RD ST",
            "city": "MIAMI",
            "state": "FL",
            "region": null,
            "latitude": 25.865625786638063,
            "longitude": -81.42670466355806,
            "rentable_building_area": 0
          },
          {
            "yardi_property_code": "1234-xyz",
            "fund_name": "Industrial Fund Example",
            "address": "Business Logistics Park - Building 6",
            "city": "Wilmington",
            "state": "IL",
            "region": null,
            "latitude": 10.9109,
            "longitude": -53.2398,
            "rentable_building_area": 1411972
          },
          {
            "yardi_property_code": "1234-xyz",
            "fund_name": "Industrial Fund Example",
            "address": "30260 S GRAASKAMP BLVD",
            "city": "WILMINGTON",
            "state": "IL",
            "region": "Midwest",
            "latitude": 41.28397585399712,
            "longitude": -86.31824338809628,
            "rentable_building_area": 934561
          },
          {
            "yardi_property_code": "1234-xyz",
            "fund_name": "Industrial Fund Example",
            "address": "3323 NE 163RD ST",
            "city": "MIAMI",
            "state": "FL",
            "region": null,
            "latitude": 26.234035220800983,
            "longitude": -77.98215816927356,
            "rentable_building_area": 116121
          },
          {
            "yardi_property_code": "1234-xyz",
            "fund_name": "Industrial Fund Example",
            "address": "3323 NE 163RD ST",
            "city": "MIAMI",
            "state": "FL",
            "region": null,
            "latitude": 25.955178250814438,
            "longitude": -78.82154928956966,
            "rentable_building_area": 190865
          },
          {
            "yardi_property_code": "1234-xyz",
            "fund_name": "Industrial Fund Example",
            "address": "3323 NE 163RD ST",
            "city": "MIAMI",
            "state": "FL",
            "region": null,
            "latitude": 25.771889994637448,
            "longitude": -80.48061372861665,
            "rentable_building_area": 78302
          },
          {
            "yardi_property_code": "1234-xyz",
            "fund_name": "Industrial Fund Example",
            "address": "600 SW 10TH ST",
            "city": "Renton",
            "state": "WA",
            "region": "West",
            "latitude": 47.25720499205772,
            "longitude": -122.19787650332847,
            "rentable_building_area": 149487
          },
          {
            "yardi_property_code": "1234-xyz",
            "fund_name": "Industrial Fund Example",
            "address": "33401 and 33441 Central Avenue",
            "city": "Union City",
            "state": "CA",
            "region": "West",
            "latitude": 37.522414635275375,
            "longitude": -121.9935724912157,
            "rentable_building_area": 85680
          },
          {
            "yardi_property_code": "1234-xyz",
            "fund_name": "Industrial Fund Example",
            "address": "43 Stults Road",
            "city": "South Brunswick",
            "state": "NJ",
            "region": "Northeast",
            "latitude": 39.928727897072335,
            "longitude": -73.00024703031208,
            "rentable_building_area": 121229
          },
          {
            "yardi_property_code": "1234-xyz",
            "fund_name": "Industrial Fund Example",
            "address": "315-325 First Street",
            "city": "Elizabeth",
            "state": "NJ",
            "region": "Northeast",
            "latitude": 40.4979974007913,
            "longitude": -71.73488993414001,
            "rentable_building_area": 334956
          },
          {
            "yardi_property_code": "1234-xyz",
            "fund_name": "Industrial Fund Example",
            "address": "4225 Hacienda Dr",
            "city": "Pleasanton",
            "state": "CA",
            "region": "West",
            "latitude": 38.10620619326761,
            "longitude": -122.09809409341725,
            "rentable_building_area": 410128
          },
          {
            "yardi_property_code": "1234-xyz",
            "fund_name": "Industrial Fund Example",
            "address": "6212 Corte del Abeto",
            "city": "Carlsbad",
            "state": "CA",
            "region": "West",
            "latitude": 32.340501292409,
            "longitude": -117.79001847754255,
            "rentable_building_area": 68994
          },
          {
            "yardi_property_code": "1234-xyz",
            "fund_name": "Industrial Fund Example",
            "address": "6955 Consolidated Way",
            "city": "San Diego",
            "state": "CA",
            "region": "West",
            "latitude": 32.865978331431634,
            "longitude": -117.6265028044261,
            "rentable_building_area": 86085
          },
          {
            "yardi_property_code": "1234-xyz",
            "fund_name": "Industrial Fund Example",
            "address": "43035 John Mosby Highway",
            "city": "Chantilly",
            "state": "VA",
            "region": "Mid Atlantic",
            "latitude": 39.43478816239707,
            "longitude": -73.66313593407385,
            "rentable_building_area": 206591
          },
          {
            "yardi_property_code": "1234-xyz",
            "fund_name": "Industrial Fund Example",
            "address": "600 Apgar Drive",
            "city": "Somerise",
            "state": "NJ",
            "region": "Northeast",
            "latitude": 40.4837541303167,
            "longitude": -75.50936041114642,
            "rentable_building_area": 153998
          },
          {
            "yardi_property_code": "1234-xyz",
            "fund_name": "Industrial Fund Example",
            "address": "110 8th Avenue",
            "city": "New York",
            "state": "NY",
            "region": "Northeast",
            "latitude": 41.43491978784982,
            "longitude": -73.00401270665994,
            "rentable_building_area": 0
          },
          {
            "yardi_property_code": "1234-xyz",
            "fund_name": "Industrial Fund Example",
            "address": "2511 Glenallan Ave",
            "city": "Silver Spring",
            "state": "MD",
            "region": "Mid Atlantic",
            "latitude": 38.95483004731276,
            "longitude": -78.11731200784136,
            "rentable_building_area": 0
          },
          {
            "yardi_property_code": "1234-xyz",
            "fund_name": "Industrial Fund Example",
            "address": "45/47 Veronica Avenue",
            "city": "Somerise",
            "state": "NJ",
            "region": "Northeast",
            "latitude": 40.50051786417859,
            "longitude": -72.60087191172966,
            "rentable_building_area": 527858
          },
          {
            "yardi_property_code": "1234-xyz",
            "fund_name": "Industrial Fund Example",
            "address": "635 Boyle Park",
            "city": "",
            "state": "",
            "region": "Mid Atlantic",
            "latitude": -43.5519,
            "longitude": -159.644,
            "rentable_building_area": 512767
          },
          {
            "yardi_property_code": "1234-xyz",
            "fund_name": "Industrial Fund Example",
            "address": "Business Logistics Park - Building 7",
            "city": "Wilmington",
            "state": "IL",
            "region": null,
            "latitude": 49.4095,
            "longitude": 130.2385,
            "rentable_building_area": 1348199
          },
          {
            "yardi_property_code": "1234-xyz",
            "fund_name": "Industrial Fund Example",
            "address": "3323 NE 163RD ST",
            "city": "MIAMI",
            "state": "FL",
            "region": "Midwest",
            "latitude": 25.655305261389064,
            "longitude": -78.03038979212127,
            "rentable_building_area": 0
          },
          {
            "yardi_property_code": "1234-xyz",
            "fund_name": "Industrial Fund Example",
            "address": "30131 ELION BLVD",
            "city": "WILMINGTON",
            "state": "IL",
            "region": "Midwest",
            "latitude": 41.43061105660931,
            "longitude": -86.8472271348294,
            "rentable_building_area": 1509149
          },
          {
            "yardi_property_code": "1234-xyz",
            "fund_name": "Industrial Fund Example",
            "address": "9696 N Division Street",
            "city": "",
            "state": "",
            "region": "Southeast",
            "latitude": 54.8535,
            "longitude": 59.5141,
            "rentable_building_area": 1095967
          },
          {
            "yardi_property_code": "1234-xyz",
            "fund_name": "Industrial Fund Example",
            "address": "3323 NE 163RD ST",
            "city": "MIAMI",
            "state": "FL",
            "region": null,
            "latitude": 26.452500675264755,
            "longitude": -76.52352245940462,
            "rentable_building_area": 0
          },
          {
            "yardi_property_code": "1234-xyz",
            "fund_name": "Industrial Fund Example",
            "address": "341 North Delilah Street",
            "city": "Corona",
            "state": "CA",
            "region": "West",
            "latitude": 33.9042724596335,
            "longitude": -117.08507497719077,
            "rentable_building_area": 50589
          },
          {
            "yardi_property_code": "1234-xyz",
            "fund_name": "Industrial Fund Example",
            "address": "5803 Newton Dr",
            "city": "Carlsbad",
            "state": "CA",
            "region": "West",
            "latitude": 33.15009725866524,
            "longitude": -114.15206788985972,
            "rentable_building_area": 64842
          },
          {
            "yardi_property_code": "1234-xyz",
            "fund_name": "Industrial Fund Example",
            "address": "1111 Pioneer Way",
            "city": "El Cajon",
            "state": "CA",
            "region": "West",
            "latitude": 33.565318222796435,
            "longitude": -114.38942509183278,
            "rentable_building_area": 130699
          },
          {
            "yardi_property_code": "1234-xyz",
            "fund_name": "Industrial Fund Example",
            "address": "1515 75th Street SW",
            "city": "Everett",
            "state": "WA",
            "region": "West",
            "latitude": 48.15632199893543,
            "longitude": -120.15014367713052,
            "rentable_building_area": 135330
          },
          {
            "yardi_property_code": "1234-xyz",
            "fund_name": "Industrial Fund Example",
            "address": "1200 Jersey Ave",
            "city": "North Brunswick",
            "state": "NJ",
            "region": "Northeast",
            "latitude": 40.62879233206787,
            "longitude": -72.62615459696141,
            "rentable_building_area": 175774
          },
          {
            "yardi_property_code": "1234-xyz",
            "fund_name": "Industrial Fund Example",
            "address": "2465 Ash Street",
            "city": "Vista",
            "state": "CA",
            "region": "West",
            "latitude": 33.2126507114094,
            "longitude": -114.15480941709677,
            "rentable_building_area": 58827
          },
          {
            "yardi_property_code": "1234-xyz",
            "fund_name": "Industrial Fund Example",
            "address": "2281 Griffin Road",
            "city": "Fort Lauderdale",
            "state": "FL",
            "region": "Southeast",
            "latitude": 26.748178325922467,
            "longitude": -77.45801123932368,
            "rentable_building_area": 197709
          },
          {
            "yardi_property_code": "1234-xyz",
            "fund_name": "Industrial Fund Example",
            "address": "1000-1108 Jefferson Ave",
            "city": "Elizabeth",
            "state": "NJ",
            "region": "Northeast",
            "latitude": 39.90950173712317,
            "longitude": -73.92297132065846,
            "rentable_building_area": 178706
          },
          {
            "yardi_property_code": "1234-xyz",
            "fund_name": "Industrial Fund Example",
            "address": "13801 NW 4th Street",
            "city": "Sunrise",
            "state": "FL",
            "region": "Southeast",
            "latitude": 27.02800778348695,
            "longitude": -77.22071997192137,
            "rentable_building_area": 56320
          },
          {
            "yardi_property_code": "1234-xyz",
            "fund_name": "Industrial Fund Example",
            "address": "4900-4950 Edison Avenue",
            "city": "Chino",
            "state": "CA",
            "region": "West",
            "latitude": 34.19713108856251,
            "longitude": -115.75417069213518,
            "rentable_building_area": 131615
          },
          {
            "yardi_property_code": "1234-xyz",
            "fund_name": "Industrial Fund Example",
            "address": "13800/13900 NW 2nd Street",
            "city": "Sunrise",
            "state": "FL",
            "region": "Southeast",
            "latitude": 26.323054297784022,
            "longitude": -76.34387218628784,
            "rentable_building_area": 467053
          },
          {
            "yardi_property_code": "1234-xyz",
            "fund_name": "Industrial Fund Example",
            "address": "14599 NW 8th Street",
            "city": "Sunrise",
            "state": "FL",
            "region": "Southeast",
            "latitude": 25.83624788573362,
            "longitude": -80.33811707897806,
            "rentable_building_area": 185232
          },
          {
            "yardi_property_code": "1234-xyz",
            "fund_name": "Industrial Fund Example",
            "address": "3323 NE 163RD ST",
            "city": "MIAMI",
            "state": "FL",
            "region": null,
            "latitude": 26.571512636808414,
            "longitude": -77.68361974162107,
            "rentable_building_area": 0
          },
          {
            "yardi_property_code": "1234-xyz",
            "fund_name": "Industrial Fund Example",
            "address": "230 W 97TH ST",
            "city": "New York",
            "state": "NY",
            "region": null,
            "latitude": 41.478270503226945,
            "longitude": -74.10788130445542,
            "rentable_building_area": 9275
          },
          {
            "yardi_property_code": "1234-xyz",
            "fund_name": "Industrial Fund Example",
            "address": "3032 Hennepin Ave",
            "city": "Minneapolis",
            "state": "MN",
            "region": "Midwest",
            "latitude": 45.37451195806173,
            "longitude": -89.97844434289394,
            "rentable_building_area": 40888
          }
        ]
      },
      "dataUpdateCount": 1,
      "dataUpdatedAt": 1742303384113,
      "error": null,
      "errorUpdateCount": 0,
      "errorUpdatedAt": 0,
      "fetchFailureCount": 0,
      "fetchFailureReason": null,
      "fetchMeta": null,
      "isInvalidated": false,
      "status": "success",
      "fetchStatus": "idle"
    }
  },
  {
    "queryKey": [
      "choices",
      {
        "appId": "ei",
        "moduleId": "assets"
      },
      null
    ],
    "state": {
      "dataUpdateCount": 0,
      "dataUpdatedAt": 0,
      "error": null,
      "errorUpdateCount": 0,
      "errorUpdatedAt": 0,
      "fetchFailureCount": 0,
      "fetchFailureReason": null,
      "fetchMeta": null,
      "isInvalidated": false,
      "status": "loading",
      "fetchStatus": "idle"
    }
  },
  {
    "queryKey": [
      {
        "appId": "ei",
        "moduleId": "assets",
        "entityId": "fund",
        "resourceId": "funds-list"
      },
      {
        "status": "active"
      }
    ],
    "state": {
      "data": [
        {
          "capital_invested": 85692104.2553059,
          "cashflow_liquidation_contribution": 0,
          "cashflow_liquidation_distribution": 0,
          "cashflow_projected_contribution": 0,
          "cashflow_projected_distribution": 0,
          "current_gross_moc": 0.4906921078978479,
          "current_irr": 0.9923617969957824,
          "current_nav": 0,
          "current_profit": 0,
          "current_walt": 9.3666666667,
          "fund_name": "Industrial Fund Example",
          "current_gav": 0,
          "projected_exit_gav": 0,
          "projected_exit_nav": 0,
          "occupancy_rate": 1,
          "projected_exit_invested_capital": 0,
          "projected_exit_gross_moc": null,
          "projected_exit_irr": 0.7444083892615118,
          "projected_exit_noi": 0,
          "projected_exit_occupancy_rate": null,
          "projected_exit_profit": 0,
          "year": 2014,
          "noi_leased_noidm": 0,
          "debt_yield_leased_noidm": 0.3158467737885231,
          "dscr_leased_noidm": null,
          "yield_on_cost_leased_noidm": 0.6335021691121098,
          "noi_over_last_12_months_noidm": 4802219.453094399,
          "debt_yield_over_last_12_months_noidm": 0.5329554673554485,
          "dscr_over_last_12_months_noidm": 0,
          "yield_on_cost_over_last_12_months_noidm": 0.5229310667368768,
          "current_cash_on_cash_over_last_12_months": 0.5006333393081569,
          "noi_forward_12_months_noidm": 0,
          "debt_yield_forward_12_months_noidm": 0.24676707576214962,
          "dscr_forward_12_months_noidm": null,
          "yield_on_cost_forward_12_months_noidm": 0.8380570140101612
        },
        {
          "capital_invested": 34935170.2696077,
          "cashflow_liquidation_contribution": 0,
          "cashflow_liquidation_distribution": 0,
          "cashflow_projected_contribution": 0,
          "cashflow_projected_distribution": 0,
          "current_gross_moc": 0.864889342769562,
          "current_irr": 0.7957416524258786,
          "current_nav": 0,
          "current_profit": 0,
          "current_walt": 3.9925923656,
          "fund_name": "Industrial Fund Example",
          "current_gav": 0,
          "projected_exit_gav": 0,
          "projected_exit_nav": 0,
          "occupancy_rate": 0.856,
          "projected_exit_invested_capital": 0,
          "projected_exit_gross_moc": null,
          "projected_exit_irr": 0.5865355018811752,
          "projected_exit_noi": 0,
          "projected_exit_occupancy_rate": null,
          "projected_exit_profit": 0,
          "year": 2024,
          "noi_leased_noidm": 0,
          "debt_yield_leased_noidm": 0.24288466533549946,
          "dscr_leased_noidm": null,
          "yield_on_cost_leased_noidm": 0.17351843337658512,
          "noi_over_last_12_months_noidm": 6463255.224271522,
          "debt_yield_over_last_12_months_noidm": 0.19304793074028959,
          "dscr_over_last_12_months_noidm": 0,
          "yield_on_cost_over_last_12_months_noidm": 0.8785703132079601,
          "current_cash_on_cash_over_last_12_months": 0.5003798655039153,
          "noi_forward_12_months_noidm": 0,
          "debt_yield_forward_12_months_noidm": 0.6446444965357581,
          "dscr_forward_12_months_noidm": null,
          "yield_on_cost_forward_12_months_noidm": 0.6594755492841788
        },
        {
          "capital_invested": 35941454.620624706,
          "cashflow_liquidation_contribution": 0,
          "cashflow_liquidation_distribution": 0,
          "cashflow_projected_contribution": 0,
          "cashflow_projected_distribution": 0,
          "current_gross_moc": 0.9345804943475894,
          "current_irr": 0.40056231438529755,
          "current_nav": 0,
          "current_profit": 0,
          "current_walt": null,
          "fund_name": "Industrial Fund Example",
          "current_gav": 0,
          "projected_exit_gav": 0,
          "projected_exit_nav": 0,
          "occupancy_rate": null,
          "projected_exit_invested_capital": 0,
          "projected_exit_gross_moc": null,
          "projected_exit_irr": 0.24882292507190507,
          "projected_exit_noi": 0,
          "projected_exit_occupancy_rate": 0,
          "projected_exit_profit": 0,
          "year": 2023,
          "noi_leased_noidm": 0,
          "debt_yield_leased_noidm": 0.9137723975838021,
          "dscr_leased_noidm": null,
          "yield_on_cost_leased_noidm": 0.6954491249361896,
          "noi_over_last_12_months_noidm": 6195623.314213527,
          "debt_yield_over_last_12_months_noidm": 0.47554345544998233,
          "dscr_over_last_12_months_noidm": 1.2666350275,
          "yield_on_cost_over_last_12_months_noidm": 0.7487542608667338,
          "current_cash_on_cash_over_last_12_months": 0.6400656405600513,
          "noi_forward_12_months_noidm": 0,
          "debt_yield_forward_12_months_noidm": 0.8778307146949662,
          "dscr_forward_12_months_noidm": null,
          "yield_on_cost_forward_12_months_noidm": 0.4825230641675595
        },
        {
          "capital_invested": 156650027.3217476,
          "cashflow_liquidation_contribution": -86098629.50698115,
          "cashflow_liquidation_distribution": 87942797.43930891,
          "cashflow_projected_contribution": -57858005.78375285,
          "cashflow_projected_distribution": 151845510.5491079,
          "current_gross_moc": 0.8573358998403094,
          "current_irr": 0.271391428854303,
          "current_nav": 78551017.73518099,
          "current_profit": 7438244.971044952,
          "current_walt": 4.0487401437,
          "fund_name": "Industrial Fund Example",
          "current_gav": 0,
          "projected_exit_gav": 0,
          "projected_exit_nav": 0,
          "occupancy_rate": 0.9152,
          "projected_exit_invested_capital": 67370889.64921865,
          "projected_exit_gross_moc": 2.2379,
          "projected_exit_irr": 0.5735741748155451,
          "projected_exit_noi": 16263989.61842558,
          "projected_exit_occupancy_rate": 0.5094,
          "projected_exit_profit": 95138477.50998071,
          "year": 2021,
          "noi_leased_noidm": 0,
          "debt_yield_leased_noidm": 0.3477296009358548,
          "dscr_leased_noidm": null,
          "yield_on_cost_leased_noidm": 0.3890418082742122,
          "noi_over_last_12_months_noidm": 26407551.240342177,
          "debt_yield_over_last_12_months_noidm": 0.35056072801674276,
          "dscr_over_last_12_months_noidm": 0,
          "yield_on_cost_over_last_12_months_noidm": 0.24721811795279303,
          "current_cash_on_cash_over_last_12_months": 0.3576195204115892,
          "noi_forward_12_months_noidm": 0,
          "debt_yield_forward_12_months_noidm": 0.4948412083271201,
          "dscr_forward_12_months_noidm": null,
          "yield_on_cost_forward_12_months_noidm": 0.17019914919881607
        },
        {
          "capital_invested": 225443911.28779516,
          "cashflow_liquidation_contribution": 0,
          "cashflow_liquidation_distribution": 0,
          "cashflow_projected_contribution": 0,
          "cashflow_projected_distribution": 0,
          "current_gross_moc": 0.5357840488203538,
          "current_irr": 0.5344500228808965,
          "current_nav": 0,
          "current_profit": 0,
          "current_walt": 6.7884531427,
          "fund_name": "Industrial Fund Example",
          "current_gav": 0,
          "projected_exit_gav": 0,
          "projected_exit_nav": 0,
          "occupancy_rate": 0.8806,
          "projected_exit_invested_capital": 0,
          "projected_exit_gross_moc": null,
          "projected_exit_irr": 0.5716125656098,
          "projected_exit_noi": 0,
          "projected_exit_occupancy_rate": null,
          "projected_exit_profit": 0,
          "year": 2024,
          "noi_leased_noidm": 0,
          "debt_yield_leased_noidm": 0.4091917309866413,
          "dscr_leased_noidm": null,
          "yield_on_cost_leased_noidm": 0.8315950808662412,
          "noi_over_last_12_months_noidm": 27485863.255090997,
          "debt_yield_over_last_12_months_noidm": 0.33285084169602364,
          "dscr_over_last_12_months_noidm": 1.302421014,
          "yield_on_cost_over_last_12_months_noidm": 0.035061479986580935,
          "current_cash_on_cash_over_last_12_months": 0.914585599519893,
          "noi_forward_12_months_noidm": 0,
          "debt_yield_forward_12_months_noidm": 0.8825775340362755,
          "dscr_forward_12_months_noidm": null,
          "yield_on_cost_forward_12_months_noidm": 0.9100602584305894
        },
        {
          "capital_invested": 82066314.12779039,
          "cashflow_liquidation_contribution": 0,
          "cashflow_liquidation_distribution": 0,
          "cashflow_projected_contribution": 0,
          "cashflow_projected_distribution": 0,
          "current_gross_moc": 0.8297369667207832,
          "current_irr": 0.679494072596244,
          "current_nav": 0,
          "current_profit": 0,
          "current_walt": 0,
          "fund_name": "Industrial Fund Example",
          "current_gav": 0,
          "projected_exit_gav": 0,
          "projected_exit_nav": 0,
          "occupancy_rate": 0,
          "projected_exit_invested_capital": 0,
          "projected_exit_gross_moc": null,
          "projected_exit_irr": 0.07215939716827469,
          "projected_exit_noi": 0,
          "projected_exit_occupancy_rate": 0,
          "projected_exit_profit": 0,
          "year": 2019,
          "noi_leased_noidm": 0,
          "debt_yield_leased_noidm": 0.6635027779003947,
          "dscr_leased_noidm": null,
          "yield_on_cost_leased_noidm": 0.005858486141630426,
          "noi_over_last_12_months_noidm": -77382.28665477103,
          "debt_yield_over_last_12_months_noidm": 0.6172012293084622,
          "dscr_over_last_12_months_noidm": 0,
          "yield_on_cost_over_last_12_months_noidm": 0.8178314598579494,
          "current_cash_on_cash_over_last_12_months": 0.40469603495282835,
          "noi_forward_12_months_noidm": 0,
          "debt_yield_forward_12_months_noidm": 0.3041143627177537,
          "dscr_forward_12_months_noidm": null,
          "yield_on_cost_forward_12_months_noidm": 0.444007413833717
        },
        {
          "capital_invested": 1523128.4822176902,
          "cashflow_liquidation_contribution": 0,
          "cashflow_liquidation_distribution": 0,
          "cashflow_projected_contribution": 0,
          "cashflow_projected_distribution": 0,
          "current_gross_moc": 0.337305081039573,
          "current_irr": 0.03279967462947453,
          "current_nav": 0,
          "current_profit": 0,
          "current_walt": null,
          "fund_name": "Industrial Fund Example",
          "current_gav": 0,
          "projected_exit_gav": 0,
          "projected_exit_nav": 0,
          "occupancy_rate": null,
          "projected_exit_invested_capital": 0,
          "projected_exit_gross_moc": null,
          "projected_exit_irr": 0.7898821092594809,
          "projected_exit_noi": 0,
          "projected_exit_occupancy_rate": 0,
          "projected_exit_profit": 0,
          "year": 2022,
          "noi_leased_noidm": 0,
          "debt_yield_leased_noidm": 0.9597028748676516,
          "dscr_leased_noidm": null,
          "yield_on_cost_leased_noidm": 0.26447331220323567,
          "noi_over_last_12_months_noidm": 0,
          "debt_yield_over_last_12_months_noidm": 0.644021814194453,
          "dscr_over_last_12_months_noidm": null,
          "yield_on_cost_over_last_12_months_noidm": 0.45106537716469564,
          "current_cash_on_cash_over_last_12_months": 0.8806312954930113,
          "noi_forward_12_months_noidm": 0,
          "debt_yield_forward_12_months_noidm": 0.5458057014131362,
          "dscr_forward_12_months_noidm": null,
          "yield_on_cost_forward_12_months_noidm": 0.3525005046785883
        },
        {
          "capital_invested": 25709666.471999597,
          "cashflow_liquidation_contribution": 0,
          "cashflow_liquidation_distribution": 0,
          "cashflow_projected_contribution": 0,
          "cashflow_projected_distribution": 0,
          "current_gross_moc": 0.7305128334556955,
          "current_irr": 0.8203295825107703,
          "current_nav": 0,
          "current_profit": 0,
          "current_walt": 3.5486690988,
          "fund_name": "Industrial Fund Example",
          "current_gav": 0,
          "projected_exit_gav": 0,
          "projected_exit_nav": 0,
          "occupancy_rate": 1,
          "projected_exit_invested_capital": 0,
          "projected_exit_gross_moc": null,
          "projected_exit_irr": 0.9276574322401056,
          "projected_exit_noi": 0,
          "projected_exit_occupancy_rate": null,
          "projected_exit_profit": 0,
          "year": 2021,
          "noi_leased_noidm": 0,
          "debt_yield_leased_noidm": 0.7970942815909025,
          "dscr_leased_noidm": null,
          "yield_on_cost_leased_noidm": 0.6889797958073152,
          "noi_over_last_12_months_noidm": 2093559.8256198016,
          "debt_yield_over_last_12_months_noidm": 0.41156547398604615,
          "dscr_over_last_12_months_noidm": 0,
          "yield_on_cost_over_last_12_months_noidm": 0.028251730837776767,
          "current_cash_on_cash_over_last_12_months": 0.1882403681036804,
          "noi_forward_12_months_noidm": 0,
          "debt_yield_forward_12_months_noidm": 0.08982641234806366,
          "dscr_forward_12_months_noidm": null,
          "yield_on_cost_forward_12_months_noidm": 0.060310966974592595
        },
        {
          "capital_invested": 0,
          "cashflow_liquidation_contribution": 0,
          "cashflow_liquidation_distribution": 0,
          "cashflow_projected_contribution": 0,
          "cashflow_projected_distribution": 0,
          "current_gross_moc": 0.28280624057328885,
          "current_irr": 0.6547358860356772,
          "current_nav": 0,
          "current_profit": 0,
          "current_walt": 4.962654536,
          "fund_name": "Industrial Fund Example",
          "current_gav": 0,
          "projected_exit_gav": 0,
          "projected_exit_nav": 0,
          "occupancy_rate": 1,
          "projected_exit_invested_capital": 0,
          "projected_exit_gross_moc": null,
          "projected_exit_irr": 0.6781529651544648,
          "projected_exit_noi": 0,
          "projected_exit_occupancy_rate": null,
          "projected_exit_profit": 0,
          "year": 2024,
          "noi_leased_noidm": 0,
          "debt_yield_leased_noidm": 0.19820767191182265,
          "dscr_leased_noidm": null,
          "yield_on_cost_leased_noidm": 0.7371044816462298,
          "noi_over_last_12_months_noidm": 4766911.120482866,
          "debt_yield_over_last_12_months_noidm": 0.5666763750558111,
          "dscr_over_last_12_months_noidm": 0,
          "yield_on_cost_over_last_12_months_noidm": 0.37050941742274957,
          "current_cash_on_cash_over_last_12_months": 0.8235663262468408,
          "noi_forward_12_months_noidm": 0,
          "debt_yield_forward_12_months_noidm": 0.6456002068048758,
          "dscr_forward_12_months_noidm": null,
          "yield_on_cost_forward_12_months_noidm": 0.936989930816935
        },
        {
          "capital_invested": 373387255.5319753,
          "cashflow_liquidation_contribution": -448753658.7047944,
          "cashflow_liquidation_distribution": 769962901.8111686,
          "cashflow_projected_contribution": -551229956.0294644,
          "cashflow_projected_distribution": 923384441.6639892,
          "current_gross_moc": 0.3489840941417315,
          "current_irr": 0.6041081067705181,
          "current_nav": 550060636.7978975,
          "current_profit": 225552300.06597185,
          "current_walt": 4.3519070201,
          "fund_name": "Industrial Fund Example",
          "current_gav": 1102064826.8740344,
          "projected_exit_gav": 1065779308.8788991,
          "projected_exit_nav": 0,
          "occupancy_rate": 0.8156,
          "projected_exit_invested_capital": 579794192.3288798,
          "projected_exit_gross_moc": 1.5243,
          "projected_exit_irr": 0.021123133049592457,
          "projected_exit_noi": 74443135.57727107,
          "projected_exit_occupancy_rate": 1,
          "projected_exit_profit": 217928946.72486517,
          "year": 2018,
          "noi_leased_noidm": 291729397.3145473,
          "debt_yield_leased_noidm": 0.7963555561737313,
          "dscr_leased_noidm": 7.2903111283,
          "yield_on_cost_leased_noidm": 0.5466895264788149,
          "noi_over_last_12_months_noidm": 36398171.96251182,
          "debt_yield_over_last_12_months_noidm": 0.22055501341888495,
          "dscr_over_last_12_months_noidm": 1.0850182533,
          "yield_on_cost_over_last_12_months_noidm": 0.3494254493733163,
          "current_cash_on_cash_over_last_12_months": 0.7115250053087235,
          "noi_forward_12_months_noidm": 0,
          "debt_yield_forward_12_months_noidm": 0.4658855579072586,
          "dscr_forward_12_months_noidm": null,
          "yield_on_cost_forward_12_months_noidm": 0.47769820306909694
        },
        {
          "capital_invested": 171900657.50087717,
          "cashflow_liquidation_contribution": 0,
          "cashflow_liquidation_distribution": 0,
          "cashflow_projected_contribution": 0,
          "cashflow_projected_distribution": 0,
          "current_gross_moc": 0.7030014951139256,
          "current_irr": 0.19810604753311545,
          "current_nav": 0,
          "current_profit": 0,
          "current_walt": 2.1643326955,
          "fund_name": "Industrial Fund Example",
          "current_gav": 0,
          "projected_exit_gav": 0,
          "projected_exit_nav": 0,
          "occupancy_rate": 0.8785,
          "projected_exit_invested_capital": 0,
          "projected_exit_gross_moc": null,
          "projected_exit_irr": 0.5278351049554229,
          "projected_exit_noi": 0,
          "projected_exit_occupancy_rate": null,
          "projected_exit_profit": 0,
          "year": 2018,
          "noi_leased_noidm": 0,
          "debt_yield_leased_noidm": 0.6377687664519839,
          "dscr_leased_noidm": null,
          "yield_on_cost_leased_noidm": 0.5027663819637663,
          "noi_over_last_12_months_noidm": 4763346.432628281,
          "debt_yield_over_last_12_months_noidm": 0.7047254188466727,
          "dscr_over_last_12_months_noidm": 0.5760640144,
          "yield_on_cost_over_last_12_months_noidm": 0.24169726997706054,
          "current_cash_on_cash_over_last_12_months": 0.81275502168741,
          "noi_forward_12_months_noidm": 0,
          "debt_yield_forward_12_months_noidm": 0.4380614275573148,
          "dscr_forward_12_months_noidm": null,
          "yield_on_cost_forward_12_months_noidm": 0.8578112894514801
        },
        {
          "capital_invested": 82035953.08482708,
          "cashflow_liquidation_contribution": 0,
          "cashflow_liquidation_distribution": 0,
          "cashflow_projected_contribution": 0,
          "cashflow_projected_distribution": 0,
          "current_gross_moc": 0.13485553661873206,
          "current_irr": 0.9184680814307686,
          "current_nav": 0,
          "current_profit": 0,
          "current_walt": 2.4922075993,
          "fund_name": "Industrial Fund Example",
          "current_gav": 0,
          "projected_exit_gav": 0,
          "projected_exit_nav": 0,
          "occupancy_rate": 0.9069,
          "projected_exit_invested_capital": 0,
          "projected_exit_gross_moc": null,
          "projected_exit_irr": 0.006957400415902981,
          "projected_exit_noi": 0,
          "projected_exit_occupancy_rate": null,
          "projected_exit_profit": 0,
          "year": 2023,
          "noi_leased_noidm": 0,
          "debt_yield_leased_noidm": 0.8003703347387384,
          "dscr_leased_noidm": null,
          "yield_on_cost_leased_noidm": 0.686475899803138,
          "noi_over_last_12_months_noidm": 5593823.38564442,
          "debt_yield_over_last_12_months_noidm": 0.8914790302465853,
          "dscr_over_last_12_months_noidm": 0,
          "yield_on_cost_over_last_12_months_noidm": 0.47789842489010326,
          "current_cash_on_cash_over_last_12_months": 0.4658575187092706,
          "noi_forward_12_months_noidm": 0,
          "debt_yield_forward_12_months_noidm": 0.31346681388415376,
          "dscr_forward_12_months_noidm": null,
          "yield_on_cost_forward_12_months_noidm": 0.9918795921208264
        },
        {
          "capital_invested": 2537940.915061751,
          "cashflow_liquidation_contribution": 0,
          "cashflow_liquidation_distribution": 0,
          "cashflow_projected_contribution": 0,
          "cashflow_projected_distribution": 0,
          "current_gross_moc": 0.5149187663348221,
          "current_irr": 0.48477872169582925,
          "current_nav": 0,
          "current_profit": 0,
          "current_walt": 5.2515130666,
          "fund_name": "Industrial Fund Example",
          "current_gav": 0,
          "projected_exit_gav": 0,
          "projected_exit_nav": 0,
          "occupancy_rate": 1,
          "projected_exit_invested_capital": 0,
          "projected_exit_gross_moc": null,
          "projected_exit_irr": 0.41336831802893825,
          "projected_exit_noi": 0,
          "projected_exit_occupancy_rate": null,
          "projected_exit_profit": 0,
          "year": 2022,
          "noi_leased_noidm": 0,
          "debt_yield_leased_noidm": 0.30781754657097715,
          "dscr_leased_noidm": null,
          "yield_on_cost_leased_noidm": 0.5041889606871316,
          "noi_over_last_12_months_noidm": 90014.2108484881,
          "debt_yield_over_last_12_months_noidm": 0.45135742271839574,
          "dscr_over_last_12_months_noidm": 0,
          "yield_on_cost_over_last_12_months_noidm": 0.5020490059427968,
          "current_cash_on_cash_over_last_12_months": 0.5683766085741123,
          "noi_forward_12_months_noidm": 0,
          "debt_yield_forward_12_months_noidm": 0.8875575774098169,
          "dscr_forward_12_months_noidm": null,
          "yield_on_cost_forward_12_months_noidm": 0.7676571352857857
        },
        {
          "capital_invested": 34990360.96357492,
          "cashflow_liquidation_contribution": 0,
          "cashflow_liquidation_distribution": 0,
          "cashflow_projected_contribution": 0,
          "cashflow_projected_distribution": 0,
          "current_gross_moc": 0.7883964816268179,
          "current_irr": 0.181876405204481,
          "current_nav": 0,
          "current_profit": 0,
          "current_walt": 0,
          "fund_name": "Industrial Fund Example",
          "current_gav": 0,
          "projected_exit_gav": 0,
          "projected_exit_nav": 0,
          "occupancy_rate": 0,
          "projected_exit_invested_capital": 0,
          "projected_exit_gross_moc": null,
          "projected_exit_irr": 0.9902907035877682,
          "projected_exit_noi": 0,
          "projected_exit_occupancy_rate": 0,
          "projected_exit_profit": 0,
          "year": 2010,
          "noi_leased_noidm": 0,
          "debt_yield_leased_noidm": 0.4312094473892899,
          "dscr_leased_noidm": null,
          "yield_on_cost_leased_noidm": 0.6996049026904126,
          "noi_over_last_12_months_noidm": -59411.529843379074,
          "debt_yield_over_last_12_months_noidm": 0.26085701572674036,
          "dscr_over_last_12_months_noidm": 0,
          "yield_on_cost_over_last_12_months_noidm": 0.7790413250091982,
          "current_cash_on_cash_over_last_12_months": 0.7724339990832723,
          "noi_forward_12_months_noidm": 0,
          "debt_yield_forward_12_months_noidm": 0.3173897347059408,
          "dscr_forward_12_months_noidm": null,
          "yield_on_cost_forward_12_months_noidm": 0.5143359929786888
        },
        {
          "capital_invested": 0,
          "cashflow_liquidation_contribution": 0,
          "cashflow_liquidation_distribution": 0,
          "cashflow_projected_contribution": 0,
          "cashflow_projected_distribution": 0,
          "current_gross_moc": 0.1475593913145845,
          "current_irr": 0.850065496013363,
          "current_nav": 0,
          "current_profit": 0,
          "current_walt": 0,
          "fund_name": "Industrial Fund Example",
          "current_gav": 0,
          "projected_exit_gav": 0,
          "projected_exit_nav": 0,
          "occupancy_rate": null,
          "projected_exit_invested_capital": 0,
          "projected_exit_gross_moc": null,
          "projected_exit_irr": 0.6237119726740328,
          "projected_exit_noi": 0,
          "projected_exit_occupancy_rate": 0,
          "projected_exit_profit": 0,
          "year": 2017,
          "noi_leased_noidm": 0,
          "debt_yield_leased_noidm": 0.6981819610832521,
          "dscr_leased_noidm": null,
          "yield_on_cost_leased_noidm": 0.46443889165808794,
          "noi_over_last_12_months_noidm": 562963.0287432262,
          "debt_yield_over_last_12_months_noidm": 0.0451531569860838,
          "dscr_over_last_12_months_noidm": 0,
          "yield_on_cost_over_last_12_months_noidm": 0.7498941901480707,
          "current_cash_on_cash_over_last_12_months": 0.07948779558284991,
          "noi_forward_12_months_noidm": 0,
          "debt_yield_forward_12_months_noidm": 0.7245320902622919,
          "dscr_forward_12_months_noidm": null,
          "yield_on_cost_forward_12_months_noidm": 0.6828034548060083
        }
      ],
      "dataUpdateCount": 1,
      "dataUpdatedAt": 1742303412552,
      "error": null,
      "errorUpdateCount": 0,
      "errorUpdatedAt": 0,
      "fetchFailureCount": 0,
      "fetchFailureReason": null,
      "fetchMeta": null,
      "isInvalidated": false,
      "status": "success",
      "fetchStatus": "idle"
    }
  },
  {
    "queryKey": [
      {
        "appId": "ei",
        "moduleId": "assets",
        "entityId": "fund",
        "resourceId": "funds-list"
      },
      {
        "status": "inactive"
      }
    ],
    "state": {
      "data": [
        {
          "capital_invested": 19821211.037732348,
          "cashflow_liquidation_contribution": -18118700.389754288,
          "cashflow_liquidation_distribution": 48333532.28911783,
          "cashflow_projected_contribution": -21583099.456074417,
          "cashflow_projected_distribution": 42814154.98230997,
          "current_gross_moc": 0.12191010522560863,
          "current_irr": 0.5891063530258196,
          "current_nav": 0,
          "current_profit": 29253587.60731778,
          "current_walt": 2.7033414567,
          "fund_name": "Industrial Fund Example",
          "current_gav": 0,
          "projected_exit_gav": 0,
          "projected_exit_nav": 0,
          "occupancy_rate": null,
          "projected_exit_invested_capital": 0,
          "projected_exit_gross_moc": 2.0585,
          "projected_exit_irr": 0.5696307610135539,
          "projected_exit_noi": 3971505.2927177283,
          "projected_exit_occupancy_rate": 1,
          "projected_exit_profit": 25454168.59931261,
          "year": 2022,
          "noi_leased_noidm": 16806639.76909342,
          "debt_yield_leased_noidm": 0.49293385348689267,
          "dscr_leased_noidm": 0,
          "yield_on_cost_leased_noidm": 0.2433921748633332,
          "noi_over_last_12_months_noidm": 30872023.512491383,
          "debt_yield_over_last_12_months_noidm": 0.36606612198680333,
          "dscr_over_last_12_months_noidm": 0,
          "yield_on_cost_over_last_12_months_noidm": 0.6716821598865251,
          "current_cash_on_cash_over_last_12_months": 0.3949948020172843,
          "noi_forward_12_months_noidm": 0,
          "debt_yield_forward_12_months_noidm": 0.13622832401544727,
          "dscr_forward_12_months_noidm": null,
          "yield_on_cost_forward_12_months_noidm": 0.4346498083563599
        },
        {
          "capital_invested": 8592898.322246158,
          "cashflow_liquidation_contribution": 0,
          "cashflow_liquidation_distribution": 0,
          "cashflow_projected_contribution": 0,
          "cashflow_projected_distribution": 0,
          "current_gross_moc": 0.2968458268657057,
          "current_irr": 0.4850759168750066,
          "current_nav": 0,
          "current_profit": 0,
          "current_walt": 3.8392224869,
          "fund_name": "Industrial Fund Example",
          "current_gav": 0,
          "projected_exit_gav": 0,
          "projected_exit_nav": 0,
          "occupancy_rate": null,
          "projected_exit_invested_capital": 0,
          "projected_exit_gross_moc": null,
          "projected_exit_irr": 0.9181649500332335,
          "projected_exit_noi": 0,
          "projected_exit_occupancy_rate": null,
          "projected_exit_profit": 0,
          "year": 2023,
          "noi_leased_noidm": 0,
          "debt_yield_leased_noidm": 0.650087878236156,
          "dscr_leased_noidm": null,
          "yield_on_cost_leased_noidm": 0.1255754835209465,
          "noi_over_last_12_months_noidm": 0,
          "debt_yield_over_last_12_months_noidm": 0.35159256061103383,
          "dscr_over_last_12_months_noidm": null,
          "yield_on_cost_over_last_12_months_noidm": 0.732288685405664,
          "current_cash_on_cash_over_last_12_months": 0.6766023983168742,
          "noi_forward_12_months_noidm": 0,
          "debt_yield_forward_12_months_noidm": 0.6815056273885173,
          "dscr_forward_12_months_noidm": null,
          "yield_on_cost_forward_12_months_noidm": 0.3060959264751246
        },
        {
          "capital_invested": 3254651.6220780266,
          "cashflow_liquidation_contribution": 0,
          "cashflow_liquidation_distribution": 0,
          "cashflow_projected_contribution": 0,
          "cashflow_projected_distribution": 0,
          "current_gross_moc": 0.18489449554684523,
          "current_irr": 0.15780378515408067,
          "current_nav": 0,
          "current_profit": 0,
          "current_walt": 3.430049435,
          "fund_name": "Industrial Fund Example",
          "current_gav": 0,
          "projected_exit_gav": 0,
          "projected_exit_nav": 0,
          "occupancy_rate": null,
          "projected_exit_invested_capital": 0,
          "projected_exit_gross_moc": null,
          "projected_exit_irr": 0.5337136843596474,
          "projected_exit_noi": 0,
          "projected_exit_occupancy_rate": null,
          "projected_exit_profit": 0,
          "year": 2023,
          "noi_leased_noidm": 0,
          "debt_yield_leased_noidm": 0.9287838031384644,
          "dscr_leased_noidm": null,
          "yield_on_cost_leased_noidm": 0.06495012930709188,
          "noi_over_last_12_months_noidm": 1.1910724366766308,
          "debt_yield_over_last_12_months_noidm": 0.8857751089038916,
          "dscr_over_last_12_months_noidm": 0,
          "yield_on_cost_over_last_12_months_noidm": 0.6244811070028297,
          "current_cash_on_cash_over_last_12_months": 0.07026304308765274,
          "noi_forward_12_months_noidm": 0,
          "debt_yield_forward_12_months_noidm": 0.17124736802714724,
          "dscr_forward_12_months_noidm": null,
          "yield_on_cost_forward_12_months_noidm": 0.8034171439199193
        },
        {
          "capital_invested": 32548617.47824291,
          "cashflow_liquidation_contribution": 0,
          "cashflow_liquidation_distribution": 0,
          "cashflow_projected_contribution": 0,
          "cashflow_projected_distribution": 0,
          "current_gross_moc": 0.6758309093069576,
          "current_irr": 0.36138280699829195,
          "current_nav": 0,
          "current_profit": 0,
          "current_walt": 3.2278360753,
          "fund_name": "Industrial Fund Example",
          "current_gav": 0,
          "projected_exit_gav": 0,
          "projected_exit_nav": 0,
          "occupancy_rate": null,
          "projected_exit_invested_capital": 0,
          "projected_exit_gross_moc": null,
          "projected_exit_irr": 0.837586517554163,
          "projected_exit_noi": 0,
          "projected_exit_occupancy_rate": null,
          "projected_exit_profit": 0,
          "year": 2013,
          "noi_leased_noidm": 0,
          "debt_yield_leased_noidm": 0.864658085702145,
          "dscr_leased_noidm": null,
          "yield_on_cost_leased_noidm": 0.039363696362563316,
          "noi_over_last_12_months_noidm": 0,
          "debt_yield_over_last_12_months_noidm": 0.37751411212274977,
          "dscr_over_last_12_months_noidm": null,
          "yield_on_cost_over_last_12_months_noidm": 0.9867200240436749,
          "current_cash_on_cash_over_last_12_months": 0.7562500034833853,
          "noi_forward_12_months_noidm": 0,
          "debt_yield_forward_12_months_noidm": 0.2832221202064661,
          "dscr_forward_12_months_noidm": null,
          "yield_on_cost_forward_12_months_noidm": 0.5672296393058062
        },
        {
          "capital_invested": 11982169.58092247,
          "cashflow_liquidation_contribution": 0,
          "cashflow_liquidation_distribution": 0,
          "cashflow_projected_contribution": 0,
          "cashflow_projected_distribution": 0,
          "current_gross_moc": 0.6356200630280312,
          "current_irr": 0.4012730928601387,
          "current_nav": 0,
          "current_profit": 0,
          "current_walt": 1.5579993601,
          "fund_name": "Industrial Fund Example",
          "current_gav": 0,
          "projected_exit_gav": 0,
          "projected_exit_nav": 0,
          "occupancy_rate": null,
          "projected_exit_invested_capital": 0,
          "projected_exit_gross_moc": null,
          "projected_exit_irr": 0.018710435436104622,
          "projected_exit_noi": 0,
          "projected_exit_occupancy_rate": null,
          "projected_exit_profit": 0,
          "year": 2016,
          "noi_leased_noidm": 0,
          "debt_yield_leased_noidm": 0.25804727030763164,
          "dscr_leased_noidm": null,
          "yield_on_cost_leased_noidm": 0.6996239215260514,
          "noi_over_last_12_months_noidm": 0,
          "debt_yield_over_last_12_months_noidm": 0.9116173851577722,
          "dscr_over_last_12_months_noidm": null,
          "yield_on_cost_over_last_12_months_noidm": 0.060392136014060016,
          "current_cash_on_cash_over_last_12_months": 0.1358023044210369,
          "noi_forward_12_months_noidm": 0,
          "debt_yield_forward_12_months_noidm": 0.10093814001553936,
          "dscr_forward_12_months_noidm": null,
          "yield_on_cost_forward_12_months_noidm": 0.5404929107968967
        },
        {
          "capital_invested": 96537473.09922014,
          "cashflow_liquidation_contribution": 0,
          "cashflow_liquidation_distribution": 0,
          "cashflow_projected_contribution": 0,
          "cashflow_projected_distribution": 0,
          "current_gross_moc": 0.9357960330425495,
          "current_irr": 0.3653193011746527,
          "current_nav": 0,
          "current_profit": 0,
          "current_walt": 7.4094357567,
          "fund_name": "Industrial Fund Example",
          "current_gav": 0,
          "projected_exit_gav": 0,
          "projected_exit_nav": 0,
          "occupancy_rate": null,
          "projected_exit_invested_capital": 0,
          "projected_exit_gross_moc": null,
          "projected_exit_irr": 0.5996225399478411,
          "projected_exit_noi": 0,
          "projected_exit_occupancy_rate": null,
          "projected_exit_profit": 0,
          "year": 2025,
          "noi_leased_noidm": 0,
          "debt_yield_leased_noidm": 0.6002339242679714,
          "dscr_leased_noidm": null,
          "yield_on_cost_leased_noidm": 0.3536341929960721,
          "noi_over_last_12_months_noidm": 0,
          "debt_yield_over_last_12_months_noidm": 0.40269864100859165,
          "dscr_over_last_12_months_noidm": null,
          "yield_on_cost_over_last_12_months_noidm": 0.18508908162047844,
          "current_cash_on_cash_over_last_12_months": 0.7169723134626587,
          "noi_forward_12_months_noidm": 0,
          "debt_yield_forward_12_months_noidm": 0.3010849606857926,
          "dscr_forward_12_months_noidm": null,
          "yield_on_cost_forward_12_months_noidm": 0.2849558968341068
        },
        {
          "capital_invested": 79784106.78248546,
          "cashflow_liquidation_contribution": 0,
          "cashflow_liquidation_distribution": 0,
          "cashflow_projected_contribution": 0,
          "cashflow_projected_distribution": 0,
          "current_gross_moc": 0.7244393088825064,
          "current_irr": 0.619009391356564,
          "current_nav": 0,
          "current_profit": 0,
          "current_walt": 1.2710565411,
          "fund_name": "Industrial Fund Example",
          "current_gav": 0,
          "projected_exit_gav": 0,
          "projected_exit_nav": 0,
          "occupancy_rate": null,
          "projected_exit_invested_capital": 0,
          "projected_exit_gross_moc": null,
          "projected_exit_irr": 0.2816706377712699,
          "projected_exit_noi": 0,
          "projected_exit_occupancy_rate": null,
          "projected_exit_profit": 0,
          "year": 2023,
          "noi_leased_noidm": 0,
          "debt_yield_leased_noidm": 0.6871202879573723,
          "dscr_leased_noidm": null,
          "yield_on_cost_leased_noidm": 0.07369651006999034,
          "noi_over_last_12_months_noidm": -28535870.671584215,
          "debt_yield_over_last_12_months_noidm": 0.6403539518192352,
          "dscr_over_last_12_months_noidm": 0,
          "yield_on_cost_over_last_12_months_noidm": 0.6868545564491345,
          "current_cash_on_cash_over_last_12_months": 0.8923526107842938,
          "noi_forward_12_months_noidm": 0,
          "debt_yield_forward_12_months_noidm": 0.8376021753255272,
          "dscr_forward_12_months_noidm": null,
          "yield_on_cost_forward_12_months_noidm": 0.18077460342804486
        }
      ],
      "dataUpdateCount": 1,
      "dataUpdatedAt": 1742303431677,
      "error": null,
      "errorUpdateCount": 0,
      "errorUpdatedAt": 0,
      "fetchFailureCount": 0,
      "fetchFailureReason": null,
      "fetchMeta": null,
      "isInvalidated": false,
      "status": "success",
      "fetchStatus": "idle"
    }
  },
  {
    "queryKey": [
      "properties",
      "propertiesGeography",
      {
        "status": "inactive",
        "page_size": "-1"
      }
    ],
    "state": {
      "data": {
        "next": null,
        "previous": null,
        "count": 76,
        "total_pages": 1,
        "results": [
          {
            "yardi_property_code": "1234-xyz",
            "fund_name": "Industrial Fund Example",
            "address": "22530 Gateway Center Drive",
            "city": "Clarksburg",
            "state": "MD",
            "region": null,
            "latitude": 39.241413026421135,
            "longitude": -77.81182922075432,
            "rentable_building_area": 72023
          },
          {
            "yardi_property_code": "1234-xyz",
            "fund_name": "Industrial Fund Example",
            "address": "22610 Gateway Center Drive",
            "city": "Clarksburg",
            "state": "MD",
            "region": null,
            "latitude": 38.92562052915934,
            "longitude": -75.289344552365,
            "rentable_building_area": 25759
          },
          {
            "yardi_property_code": "1234-xyz",
            "fund_name": "Industrial Fund Example",
            "address": "12001 Indian Creek Court",
            "city": "Beltsville",
            "state": "MD",
            "region": null,
            "latitude": 39.78880801493361,
            "longitude": -76.84857200727542,
            "rentable_building_area": 12612
          },
          {
            "yardi_property_code": "1234-xyz",
            "fund_name": "Industrial Fund Example",
            "address": "3680-3863 Centerview Drive",
            "city": "Chantilly",
            "state": "VA",
            "region": "Mid Atlantic",
            "latitude": 38.875821207678044,
            "longitude": -73.46936975826421,
            "rentable_building_area": 294088
          },
          {
            "yardi_property_code": "1234-xyz",
            "fund_name": "Industrial Fund Example",
            "address": "3900 Coral Ridge Drive",
            "city": "Coral Springs",
            "state": "FL",
            "region": "Southeast",
            "latitude": 25.879989297664668,
            "longitude": -79.27501177600004,
            "rentable_building_area": 89483
          },
          {
            "yardi_property_code": "1234-xyz",
            "fund_name": "Industrial Fund Example",
            "address": "3141 SW 10th St",
            "city": "Pompano Beach",
            "state": "FL",
            "region": "Southeast",
            "latitude": 25.723373469754787,
            "longitude": -78.74180381965557,
            "rentable_building_area": 91331
          },
          {
            "yardi_property_code": "1234-xyz",
            "fund_name": "Industrial Fund Example",
            "address": "6649 Catharpin Road",
            "city": "Gainsville",
            "state": "VA",
            "region": "Mid Atlantic",
            "latitude": 38.75046002319245,
            "longitude": -75.51792949255938,
            "rentable_building_area": 0
          },
          {
            "yardi_property_code": "1234-xyz",
            "fund_name": "Industrial Fund Example",
            "address": "3070 US Highway 1 South",
            "city": "Saint Augustine",
            "state": "FL",
            "region": "Southeast",
            "latitude": 29.175128039027534,
            "longitude": -78.29891931442074,
            "rentable_building_area": 0
          },
          {
            "yardi_property_code": "1234-xyz",
            "fund_name": "Industrial Fund Example",
            "address": "5889 Greenwood Plaza Blvd",
            "city": "Denver",
            "state": "CO",
            "region": "Mountain",
            "latitude": 39.89664741349757,
            "longitude": -104.65926737219078,
            "rentable_building_area": 0
          },
          {
            "yardi_property_code": "1234-xyz",
            "fund_name": "Industrial Fund Example",
            "address": "225 Radio Drive",
            "city": "Woodbury",
            "state": "MN",
            "region": "Midwest",
            "latitude": 45.14701815406069,
            "longitude": -90.71450159912956,
            "rentable_building_area": 0
          },
          {
            "yardi_property_code": "1234-xyz",
            "fund_name": "Industrial Fund Example",
            "address": "435 Winthrop Ave",
            "city": "Andover",
            "state": "MA",
            "region": "Northeast",
            "latitude": 43.21962063779625,
            "longitude": -71.63071753832077,
            "rentable_building_area": 0
          },
          {
            "yardi_property_code": "1234-xyz",
            "fund_name": "Industrial Fund Example",
            "address": "11200 San Jose Blvd",
            "city": "Jacksonville",
            "state": "FL",
            "region": "Southeast",
            "latitude": 30.67657943347712,
            "longitude": -80.72712557499841,
            "rentable_building_area": 0
          },
          {
            "yardi_property_code": "1234-xyz",
            "fund_name": "Industrial Fund Example",
            "address": "225 Radio Drive",
            "city": "Woodbury",
            "state": "MN",
            "region": null,
            "latitude": 44.53739487251567,
            "longitude": -91.72445780517916,
            "rentable_building_area": 0
          },
          {
            "yardi_property_code": "1234-xyz",
            "fund_name": "Industrial Fund Example",
            "address": "245-365 Radio Drive",
            "city": "Woodbury",
            "state": "MN",
            "region": "Midwest",
            "latitude": 45.2059412989504,
            "longitude": -91.60764872136721,
            "rentable_building_area": 0
          },
          {
            "yardi_property_code": "1234-xyz",
            "fund_name": "Industrial Fund Example",
            "address": "2657 N Monroe Street",
            "city": "Tallahassee",
            "state": "FL",
            "region": "Southeast",
            "latitude": 30.53862745264551,
            "longitude": -82.92181670821583,
            "rentable_building_area": 0
          },
          {
            "yardi_property_code": "1234-xyz",
            "fund_name": "Industrial Fund Example",
            "address": "375 Village Drive",
            "city": "Carol Stream",
            "state": "IL",
            "region": "Midwest",
            "latitude": 42.19287389462033,
            "longitude": -87.02871339654135,
            "rentable_building_area": 72420
          },
          {
            "yardi_property_code": "1234-xyz",
            "fund_name": "Industrial Fund Example",
            "address": "2875 NW 77th Ave",
            "city": "Miami",
            "state": "FL",
            "region": "Southeast",
            "latitude": 25.721023638061066,
            "longitude": -78.54354113825082,
            "rentable_building_area": 60055
          },
          {
            "yardi_property_code": "1234-xyz",
            "fund_name": "Industrial Fund Example",
            "address": "935 NW 31st Avenue",
            "city": "Pompano Beach",
            "state": "FL",
            "region": "Southeast",
            "latitude": 26.81067435176116,
            "longitude": -79.3930912032047,
            "rentable_building_area": 49261
          },
          {
            "yardi_property_code": "1234-xyz",
            "fund_name": "Industrial Fund Example",
            "address": "3022 Hennepin Ave",
            "city": "Minneapolis",
            "state": "MN",
            "region": "Midwest",
            "latitude": 44.690063332461314,
            "longitude": -94.54357771013551,
            "rentable_building_area": 0
          },
          {
            "yardi_property_code": "1234-xyz",
            "fund_name": "Industrial Fund Example",
            "address": "6435 Virginia Manor",
            "city": "Beltsville",
            "state": "MD",
            "region": null,
            "latitude": 39.78910516543373,
            "longitude": -72.70421066339966,
            "rentable_building_area": 67971
          },
          {
            "yardi_property_code": "1234-xyz",
            "fund_name": "Industrial Fund Example",
            "address": "22616 Gateway Center Drive",
            "city": "Clarksburg",
            "state": "MD",
            "region": null,
            "latitude": 39.12028118494251,
            "longitude": -75.55343416960808,
            "rentable_building_area": 65148
          },
          {
            "yardi_property_code": "1234-xyz",
            "fund_name": "Industrial Fund Example",
            "address": "3323 NE 163RD ST",
            "city": "MIAMI",
            "state": "FL",
            "region": null,
            "latitude": 25.65552590464729,
            "longitude": -77.95819346632456,
            "rentable_building_area": 0
          },
          {
            "yardi_property_code": "1234-xyz",
            "fund_name": "Industrial Fund Example",
            "address": "403 Glenn Drive",
            "city": "Sterling",
            "state": "VA",
            "region": null,
            "latitude": 39.048868012074074,
            "longitude": -74.13358533637023,
            "rentable_building_area": 138619
          },
          {
            "yardi_property_code": "1234-xyz",
            "fund_name": "Industrial Fund Example",
            "address": "12040 Indian Creek Court",
            "city": "Beltsville",
            "state": "MD",
            "region": null,
            "latitude": 39.001789644738345,
            "longitude": -77.35156885555877,
            "rentable_building_area": 23114
          },
          {
            "yardi_property_code": "1234-xyz",
            "fund_name": "Industrial Fund Example",
            "address": "6501 Virginia Manor",
            "city": "Beltsville",
            "state": "MD",
            "region": null,
            "latitude": 39.63456736513509,
            "longitude": -75.02214139724583,
            "rentable_building_area": 40204
          },
          {
            "yardi_property_code": "1234-xyz",
            "fund_name": "Industrial Fund Example",
            "address": "22516 Gateway Center Drive",
            "city": "Clarksburg",
            "state": "MD",
            "region": null,
            "latitude": 39.0709087997226,
            "longitude": -74.15965498672492,
            "rentable_building_area": 43679
          },
          {
            "yardi_property_code": "1234-xyz",
            "fund_name": "Industrial Fund Example",
            "address": "22446 Davis Drive",
            "city": "Sterling",
            "state": "VA",
            "region": null,
            "latitude": 39.215152106507084,
            "longitude": -79.05695074679636,
            "rentable_building_area": 49801
          },
          {
            "yardi_property_code": "1234-xyz",
            "fund_name": "Industrial Fund Example",
            "address": "400 East Gude Drive",
            "city": "Rockville",
            "state": "MD",
            "region": null,
            "latitude": 39.24215934152964,
            "longitude": -76.35050862440386,
            "rentable_building_area": 37873
          },
          {
            "yardi_property_code": "1234-xyz",
            "fund_name": "Industrial Fund Example",
            "address": "8200/8300 NW 93 STREET",
            "city": "MIAMI",
            "state": "FL",
            "region": "Southeast",
            "latitude": 26.232948100196342,
            "longitude": -78.22951701242425,
            "rentable_building_area": 157787
          },
          {
            "yardi_property_code": "1234-xyz",
            "fund_name": "Industrial Fund Example",
            "address": "7207 North State Road 7",
            "city": "Parkland",
            "state": "FL",
            "region": "Southeast",
            "latitude": 26.22357380208891,
            "longitude": -78.59336194970845,
            "rentable_building_area": 0
          },
          {
            "yardi_property_code": "1234-xyz",
            "fund_name": "Industrial Fund Example",
            "address": "1150 Chapin Rd",
            "city": "Chapin",
            "state": "SC",
            "region": "Southeast",
            "latitude": 34.647949674813276,
            "longitude": -79.40655590258608,
            "rentable_building_area": 87679
          },
          {
            "yardi_property_code": "1234-xyz",
            "fund_name": "Industrial Fund Example",
            "address": "2121 NW 15th Avenue",
            "city": "Pompano",
            "state": "FL",
            "region": "Southeast",
            "latitude": 26.058866467042236,
            "longitude": -78.90532534401292,
            "rentable_building_area": 107857
          },
          {
            "yardi_property_code": "1234-xyz",
            "fund_name": "Industrial Fund Example",
            "address": "16363 NW 49th Avenue",
            "city": "Miami Gardens",
            "state": "FL",
            "region": "Southeast",
            "latitude": 26.37989211332653,
            "longitude": -81.90725336358989,
            "rentable_building_area": 42081
          },
          {
            "yardi_property_code": "1234-xyz",
            "fund_name": "Industrial Fund Example",
            "address": "1730 West 38th Place",
            "city": "Hialeah",
            "state": "FL",
            "region": "Southeast",
            "latitude": 25.856359846628965,
            "longitude": -79.33620739471915,
            "rentable_building_area": 54678
          },
          {
            "yardi_property_code": "1234-xyz",
            "fund_name": "Industrial Fund Example",
            "address": "20420 Century Boulevard",
            "city": "Germantown",
            "state": "MD",
            "region": null,
            "latitude": 39.345427360183116,
            "longitude": -73.13071423320355,
            "rentable_building_area": 51310
          },
          {
            "yardi_property_code": "1234-xyz",
            "fund_name": "Industrial Fund Example",
            "address": "226 W 97th & 2568 Broadway",
            "city": "Manhattan",
            "state": "NY",
            "region": "Northeast",
            "latitude": 40.90353592627564,
            "longitude": -71.45686525815154,
            "rentable_building_area": 0
          },
          {
            "yardi_property_code": "1234-xyz",
            "fund_name": "Industrial Fund Example",
            "address": "16100 NW 49th Avenue",
            "city": "Miami Gardens",
            "state": "FL",
            "region": "Southeast",
            "latitude": 25.951415660077217,
            "longitude": -79.22803922470942,
            "rentable_building_area": 100564
          },
          {
            "yardi_property_code": "1234-xyz",
            "fund_name": "Industrial Fund Example",
            "address": "4672 N Division Street",
            "city": "",
            "state": "",
            "region": "Southeast",
            "latitude": 68.7957,
            "longitude": -49.5977,
            "rentable_building_area": 0
          },
          {
            "yardi_property_code": "1234-xyz",
            "fund_name": "Industrial Fund Example",
            "address": "20400 Century Boulevard",
            "city": "Germantown",
            "state": "MD",
            "region": null,
            "latitude": 39.38223330443758,
            "longitude": -75.61360785707652,
            "rentable_building_area": 0
          },
          {
            "yardi_property_code": "1234-xyz",
            "fund_name": "Industrial Fund Example",
            "address": "20430 Century Boulevard",
            "city": "Germantown",
            "state": "MD",
            "region": null,
            "latitude": 39.413650756026506,
            "longitude": -75.36424548684046,
            "rentable_building_area": 41297
          },
          {
            "yardi_property_code": "1234-xyz",
            "fund_name": "Industrial Fund Example",
            "address": "20440 Century Boulevard",
            "city": "Germantown",
            "state": "MD",
            "region": null,
            "latitude": 39.82853703454055,
            "longitude": -76.15156779778151,
            "rentable_building_area": 65028
          },
          {
            "yardi_property_code": "1234-xyz",
            "fund_name": "Industrial Fund Example",
            "address": "3880 NW 124th Ave",
            "city": "Coral Springs",
            "state": "FL",
            "region": "Southeast",
            "latitude": 26.34445956751196,
            "longitude": -79.35099307487677,
            "rentable_building_area": 41493
          },
          {
            "yardi_property_code": "1234-xyz",
            "fund_name": "Industrial Fund Example",
            "address": "7300 Calhoun Place",
            "city": "Rockville",
            "state": "MD",
            "region": null,
            "latitude": 38.87033471973798,
            "longitude": -75.77496706251556,
            "rentable_building_area": 87067
          },
          {
            "yardi_property_code": "1234-xyz",
            "fund_name": "Industrial Fund Example",
            "address": "405 Glenn Drive",
            "city": "Sterling",
            "state": "VA",
            "region": null,
            "latitude": 39.07618399356137,
            "longitude": -72.8314209937309,
            "rentable_building_area": 65467
          },
          {
            "yardi_property_code": "1234-xyz",
            "fund_name": "Industrial Fund Example",
            "address": "12000 Indian Creek Court",
            "city": "Beltsville",
            "state": "MD",
            "region": null,
            "latitude": 38.407545516925914,
            "longitude": -76.06832865527782,
            "rentable_building_area": 54060
          },
          {
            "yardi_property_code": "1234-xyz",
            "fund_name": "Industrial Fund Example",
            "address": "22455 Davis Drive",
            "city": "Sterling",
            "state": "VA",
            "region": null,
            "latitude": 38.86603276361505,
            "longitude": -74.77058941819196,
            "rentable_building_area": 53900
          },
          {
            "yardi_property_code": "1234-xyz",
            "fund_name": "Industrial Fund Example",
            "address": "22400 Davis Drive",
            "city": "Sterling",
            "state": "VA",
            "region": null,
            "latitude": 39.55521743344881,
            "longitude": -76.52557403188518,
            "rentable_building_area": 69100
          },
          {
            "yardi_property_code": "1234-xyz",
            "fund_name": "Industrial Fund Example",
            "address": "22560 Glenn Drive",
            "city": "Sterling",
            "state": "VA",
            "region": null,
            "latitude": 38.85289746690005,
            "longitude": -75.28811565191981,
            "rentable_building_area": 72947
          },
          {
            "yardi_property_code": "1234-xyz",
            "fund_name": "Industrial Fund Example",
            "address": "12051 Indian Creek Court",
            "city": "Beltsville",
            "state": "MD",
            "region": null,
            "latitude": 39.76337157027114,
            "longitude": -74.56985838690548,
            "rentable_building_area": 114478
          },
          {
            "yardi_property_code": "1234-xyz",
            "fund_name": "Industrial Fund Example",
            "address": "1200 SW 35th Ave",
            "city": "Boynton Beach",
            "state": "FL",
            "region": "Southeast",
            "latitude": 26.557609477554617,
            "longitude": -78.27907303810551,
            "rentable_building_area": 252438
          },
          {
            "yardi_property_code": "1234-xyz",
            "fund_name": "Industrial Fund Example",
            "address": "111 Internationale Blvd",
            "city": "Glendale Heights",
            "state": "IL",
            "region": "Midwest",
            "latitude": 42.41794441991905,
            "longitude": -87.3137794571702,
            "rentable_building_area": 69808
          },
          {
            "yardi_property_code": "1234-xyz",
            "fund_name": "Industrial Fund Example",
            "address": "7525 N. State Road 7",
            "city": "Parkland",
            "state": "FL",
            "region": "Southeast",
            "latitude": 27.152973795824767,
            "longitude": -79.79243038372168,
            "rentable_building_area": 0
          },
          {
            "yardi_property_code": "1234-xyz",
            "fund_name": "Industrial Fund Example",
            "address": "7425 NW 79th Street",
            "city": "Medley",
            "state": "FL",
            "region": "Southeast",
            "latitude": 25.711394151315574,
            "longitude": -77.16339763267266,
            "rentable_building_area": 80285
          },
          {
            "yardi_property_code": "1234-xyz",
            "fund_name": "Industrial Fund Example",
            "address": "102-116 8th Avenue",
            "city": "New York",
            "state": "NY",
            "region": "Northeast",
            "latitude": 40.15186011490158,
            "longitude": -72.28327908109553,
            "rentable_building_area": 0
          },
          {
            "yardi_property_code": "1234-xyz",
            "fund_name": "Industrial Fund Example",
            "address": "1800 N. Commerce Pkwy",
            "city": "Weston",
            "state": "FL",
            "region": "Southeast",
            "latitude": 26.16025428932359,
            "longitude": -80.00835873629148,
            "rentable_building_area": 80563
          },
          {
            "yardi_property_code": "1234-xyz",
            "fund_name": "Industrial Fund Example",
            "address": "287 E. Indiantown Road",
            "city": "Jupiter",
            "state": "FL",
            "region": "Southeast",
            "latitude": 26.92726461828731,
            "longitude": -80.13824543214608,
            "rentable_building_area": 46419
          },
          {
            "yardi_property_code": "1234-xyz",
            "fund_name": "Industrial Fund Example",
            "address": "12201 Indian Creek Court",
            "city": "Beltsville",
            "state": "MD",
            "region": null,
            "latitude": 38.78236548160001,
            "longitude": -75.39378498300326,
            "rentable_building_area": 26506
          },
          {
            "yardi_property_code": "1234-xyz",
            "fund_name": "Industrial Fund Example",
            "address": "22370 Davis Drive",
            "city": "Sterling",
            "state": "VA",
            "region": null,
            "latitude": 39.65419500902845,
            "longitude": -73.92897730020839,
            "rentable_building_area": 58801
          },
          {
            "yardi_property_code": "1234-xyz",
            "fund_name": "Industrial Fund Example",
            "address": "22520 Gateway Center Drive",
            "city": "Clarksburg",
            "state": "MD",
            "region": null,
            "latitude": 39.16487680585454,
            "longitude": -77.71418709600142,
            "rentable_building_area": 46251
          },
          {
            "yardi_property_code": "1234-xyz",
            "fund_name": "Industrial Fund Example",
            "address": "14420-14434 Albemarle Point Place",
            "city": "Chantilly",
            "state": "VA",
            "region": "Mid Atlantic",
            "latitude": 38.35345427219099,
            "longitude": -75.96634144898802,
            "rentable_building_area": 282648
          },
          {
            "yardi_property_code": "1234-xyz",
            "fund_name": "Industrial Fund Example",
            "address": "7301 Calhoun Place",
            "city": "Rockville",
            "state": "MD",
            "region": null,
            "latitude": 38.687393228952764,
            "longitude": -75.05502715670849,
            "rentable_building_area": 66063
          },
          {
            "yardi_property_code": "1234-xyz",
            "fund_name": "Industrial Fund Example",
            "address": "22600 Gateway Center Drive",
            "city": "Clarksburg",
            "state": "MD",
            "region": null,
            "latitude": 39.32759744607184,
            "longitude": -75.9389024701429,
            "rentable_building_area": 31479
          },
          {
            "yardi_property_code": "1234-xyz",
            "fund_name": "Industrial Fund Example",
            "address": "1401 South Kirkman Road",
            "city": "Orlando",
            "state": "FL",
            "region": null,
            "latitude": 28.82421604938317,
            "longitude": -79.03741294612229,
            "rentable_building_area": 0
          },
          {
            "yardi_property_code": "1234-xyz",
            "fund_name": "Industrial Fund Example",
            "address": "103 Elm Street",
            "city": "Enfield",
            "state": "CT",
            "region": "Northeast",
            "latitude": 41.854399154421166,
            "longitude": -70.59813644902108,
            "rentable_building_area": 0
          },
          {
            "yardi_property_code": "1234-xyz",
            "fund_name": "Industrial Fund Example",
            "address": "2875 NE 191 STREET",
            "city": "AVENTURA",
            "state": "FL",
            "region": null,
            "latitude": 26.410512815545918,
            "longitude": -79.31619394966391,
            "rentable_building_area": 0
          },
          {
            "yardi_property_code": "1234-xyz",
            "fund_name": "Industrial Fund Example",
            "address": "901 W Indiantown Road",
            "city": "Jupiter",
            "state": "FL",
            "region": "Southeast",
            "latitude": 26.718733603228134,
            "longitude": -79.79413896401341,
            "rentable_building_area": 44836
          },
          {
            "yardi_property_code": "1234-xyz",
            "fund_name": "Industrial Fund Example",
            "address": "6649 Catharpin Road",
            "city": "Gainesville",
            "state": "VA",
            "region": "Mid Atlantic",
            "latitude": 39.33447618657287,
            "longitude": -78.2959744342247,
            "rentable_building_area": 0
          },
          {
            "yardi_property_code": "1234-xyz",
            "fund_name": "Industrial Fund Example",
            "address": "5001 Hiatus Road",
            "city": "Sunrise",
            "state": "FL",
            "region": "Southeast",
            "latitude": 25.380838239033736,
            "longitude": -79.06656320318064,
            "rentable_building_area": 0
          },
          {
            "yardi_property_code": "1234-xyz",
            "fund_name": "Industrial Fund Example",
            "address": "225 Radio Drive",
            "city": "Woodbury",
            "state": "MN",
            "region": "Midwest",
            "latitude": 45.23203041319405,
            "longitude": -92.5231700826928,
            "rentable_building_area": 2
          },
          {
            "yardi_property_code": "1234-xyz",
            "fund_name": "Industrial Fund Example",
            "address": "1814 W Tennessee Street",
            "city": "Tallahassee",
            "state": "FL",
            "region": "Southeast",
            "latitude": 30.621481941375073,
            "longitude": -83.90852876612597,
            "rentable_building_area": 0
          },
          {
            "yardi_property_code": "1234-xyz",
            "fund_name": "Industrial Fund Example",
            "address": "7900 West McNab Road",
            "city": "North Lauderdale",
            "state": "FL",
            "region": "Southeast",
            "latitude": 26.402411462795914,
            "longitude": -78.66524323091795,
            "rentable_building_area": 0
          },
          {
            "yardi_property_code": "1234-xyz",
            "fund_name": "Industrial Fund Example",
            "address": "3400 Park Central Boulevard North",
            "city": "Pompano Beach",
            "state": "FL",
            "region": "Southeast",
            "latitude": 26.058476618154227,
            "longitude": -79.71468940440676,
            "rentable_building_area": 40376
          },
          {
            "yardi_property_code": "1234-xyz",
            "fund_name": "Industrial Fund Example",
            "address": "11351 NW 36 Terrace",
            "city": "Doral",
            "state": "FL",
            "region": "Southeast",
            "latitude": 25.860986229903325,
            "longitude": -77.71867502202228,
            "rentable_building_area": 31222
          },
          {
            "yardi_property_code": "1234-xyz",
            "fund_name": "Industrial Fund Example",
            "address": "20450 Century Boulevard",
            "city": "Germantown",
            "state": "MD",
            "region": null,
            "latitude": 39.78998873485388,
            "longitude": -75.7564102905347,
            "rentable_building_area": 0
          },
          {
            "yardi_property_code": "1234-xyz",
            "fund_name": "Industrial Fund Example",
            "address": "5280 NW 165 Street",
            "city": "Hialeah",
            "state": "FL",
            "region": "Southeast",
            "latitude": 25.78995556761092,
            "longitude": -75.72271798441629,
            "rentable_building_area": 27971
          },
          {
            "yardi_property_code": "1234-xyz",
            "fund_name": "Industrial Fund Example",
            "address": "1501 NE 26th Street & NE 26th Drive",
            "city": "Wilton Manors",
            "state": "FL",
            "region": null,
            "latitude": 25.60555310220777,
            "longitude": -77.70431770844408,
            "rentable_building_area": 20509
          }
        ]
      },
      "dataUpdateCount": 1,
      "dataUpdatedAt": 1742303419915,
      "error": null,
      "errorUpdateCount": 0,
      "errorUpdatedAt": 0,
      "fetchFailureCount": 0,
      "fetchFailureReason": null,
      "fetchMeta": null,
      "isInvalidated": false,
      "status": "success",
      "fetchStatus": "idle"
    }
  },
  {
    "queryKey": [
      {
        "appId": "ei",
        "moduleId": "assets",
        "entityId": "fund",
        "resourceId": "funds-list"
      },
      {
        "status": "all"
      }
    ],
    "state": {
      "data": [
        {
          "capital_invested": 6157726352.936202,
          "cashflow_liquidation_contribution": 0,
          "cashflow_liquidation_distribution": 0,
          "cashflow_projected_contribution": 0,
          "cashflow_projected_distribution": 0,
          "current_gross_moc": 0.9127114050125128,
          "current_irr": 0.34158835133119425,
          "current_nav": 0,
          "current_profit": 0,
          "current_walt": null,
          "fund_name": "Industrial Fund Example",
          "current_gav": 0,
          "projected_exit_gav": 0,
          "projected_exit_nav": 0,
          "occupancy_rate": null,
          "projected_exit_invested_capital": 0,
          "projected_exit_gross_moc": null,
          "projected_exit_irr": 0.12056339901140734,
          "projected_exit_noi": 0,
          "projected_exit_occupancy_rate": null,
          "projected_exit_profit": 0,
          "year": 2016,
          "noi_leased_noidm": 0,
          "debt_yield_leased_noidm": 0.2295241154148493,
          "dscr_leased_noidm": null,
          "yield_on_cost_leased_noidm": 0.8759121393712044,
          "noi_over_last_12_months_noidm": -33146482.227252062,
          "debt_yield_over_last_12_months_noidm": 0.9937377362859057,
          "dscr_over_last_12_months_noidm": null,
          "yield_on_cost_over_last_12_months_noidm": 0.5183901686043068,
          "current_cash_on_cash_over_last_12_months": 0.1582467995094371,
          "noi_forward_12_months_noidm": 0,
          "debt_yield_forward_12_months_noidm": 0.4253848532357489,
          "dscr_forward_12_months_noidm": null,
          "yield_on_cost_forward_12_months_noidm": 0.9413983158257894
        },
        {
          "capital_invested": 607484535.428326,
          "cashflow_liquidation_contribution": -611125542.101393,
          "cashflow_liquidation_distribution": 640623790.9818865,
          "cashflow_projected_contribution": -407554955.73750293,
          "cashflow_projected_distribution": 839953818.6953515,
          "current_gross_moc": 0.6078687021055001,
          "current_irr": 0.10340957651353089,
          "current_nav": 722851881.7468166,
          "current_profit": 265489199.92675805,
          "current_walt": 4.1913923242,
          "fund_name": "Industrial Fund Example",
          "current_gav": 1349391860.0167363,
          "projected_exit_gav": 1325044331.6429362,
          "projected_exit_nav": 0,
          "occupancy_rate": 0.9036,
          "projected_exit_invested_capital": 524737146.1451072,
          "projected_exit_gross_moc": 1.547,
          "projected_exit_irr": 0.7510637268363981,
          "projected_exit_noi": 56169317.06393005,
          "projected_exit_occupancy_rate": 1,
          "projected_exit_profit": 280105693.1967432,
          "year": 2010,
          "noi_leased_noidm": 305122671.0671245,
          "debt_yield_leased_noidm": 0.8022819424144605,
          "dscr_leased_noidm": 7.6772139365,
          "yield_on_cost_leased_noidm": 0.9630238494928955,
          "noi_over_last_12_months_noidm": 54942362.16516938,
          "debt_yield_over_last_12_months_noidm": 0.49932875261185905,
          "dscr_over_last_12_months_noidm": 1.9500758051,
          "yield_on_cost_over_last_12_months_noidm": 0.9867302462610319,
          "current_cash_on_cash_over_last_12_months": 0.3965726953326394,
          "noi_forward_12_months_noidm": 0,
          "debt_yield_forward_12_months_noidm": 0.7020246825411922,
          "dscr_forward_12_months_noidm": null,
          "yield_on_cost_forward_12_months_noidm": 0.7073960480950666
        },
        {
          "capital_invested": 175322968.84668434,
          "cashflow_liquidation_contribution": 0,
          "cashflow_liquidation_distribution": 0,
          "cashflow_projected_contribution": 0,
          "cashflow_projected_distribution": 0,
          "current_gross_moc": 0.37869115161953504,
          "current_irr": 0.017735111306821927,
          "current_nav": 0,
          "current_profit": 0,
          "current_walt": 2.1643326955,
          "fund_name": "Industrial Fund Example",
          "current_gav": 0,
          "projected_exit_gav": 0,
          "projected_exit_nav": 0,
          "occupancy_rate": 0.8785,
          "projected_exit_invested_capital": 0,
          "projected_exit_gross_moc": null,
          "projected_exit_irr": 0.020611961225364017,
          "projected_exit_noi": 0,
          "projected_exit_occupancy_rate": null,
          "projected_exit_profit": 0,
          "year": 2022,
          "noi_leased_noidm": 0,
          "debt_yield_leased_noidm": 0.2730607800211534,
          "dscr_leased_noidm": null,
          "yield_on_cost_leased_noidm": 0.3222190406075153,
          "noi_over_last_12_months_noidm": 3093169.702028356,
          "debt_yield_over_last_12_months_noidm": 0.4579715475475018,
          "dscr_over_last_12_months_noidm": 0.5760640144,
          "yield_on_cost_over_last_12_months_noidm": 0.9181178343519434,
          "current_cash_on_cash_over_last_12_months": 0.1400258369728986,
          "noi_forward_12_months_noidm": 0,
          "debt_yield_forward_12_months_noidm": 0.8903598389023567,
          "dscr_forward_12_months_noidm": null,
          "yield_on_cost_forward_12_months_noidm": 0.6689329569227537
        },
        {
          "capital_invested": 0,
          "cashflow_liquidation_contribution": 0,
          "cashflow_liquidation_distribution": 0,
          "cashflow_projected_contribution": 0,
          "cashflow_projected_distribution": 0,
          "current_gross_moc": 0.33728155344767563,
          "current_irr": 0.07987402785479292,
          "current_nav": 0,
          "current_profit": 0,
          "current_walt": 4.962654536,
          "fund_name": "Industrial Fund Example",
          "current_gav": 0,
          "projected_exit_gav": 0,
          "projected_exit_nav": 0,
          "occupancy_rate": 1,
          "projected_exit_invested_capital": 0,
          "projected_exit_gross_moc": null,
          "projected_exit_irr": 0.9923887040939117,
          "projected_exit_noi": 0,
          "projected_exit_occupancy_rate": null,
          "projected_exit_profit": 0,
          "year": 2025,
          "noi_leased_noidm": 0,
          "debt_yield_leased_noidm": 0.08157323412875406,
          "dscr_leased_noidm": null,
          "yield_on_cost_leased_noidm": 0.043754214394698177,
          "noi_over_last_12_months_noidm": 4932857.851627613,
          "debt_yield_over_last_12_months_noidm": 0.29125747293305804,
          "dscr_over_last_12_months_noidm": 0,
          "yield_on_cost_over_last_12_months_noidm": 0.13293943252689466,
          "current_cash_on_cash_over_last_12_months": 0.6038893798534959,
          "noi_forward_12_months_noidm": 0,
          "debt_yield_forward_12_months_noidm": 0.1483804928173198,
          "dscr_forward_12_months_noidm": null,
          "yield_on_cost_forward_12_months_noidm": 0.7137498903724645
        },
        {
          "capital_invested": 42452053.42829156,
          "cashflow_liquidation_contribution": 0,
          "cashflow_liquidation_distribution": 0,
          "cashflow_projected_contribution": 0,
          "cashflow_projected_distribution": 0,
          "current_gross_moc": 0.36322638255197826,
          "current_irr": 0.5805209430827641,
          "current_nav": 0,
          "current_profit": 0,
          "current_walt": null,
          "fund_name": "Industrial Fund Example",
          "current_gav": 0,
          "projected_exit_gav": 0,
          "projected_exit_nav": 0,
          "occupancy_rate": null,
          "projected_exit_invested_capital": 0,
          "projected_exit_gross_moc": null,
          "projected_exit_irr": 0.47443865718887,
          "projected_exit_noi": 0,
          "projected_exit_occupancy_rate": 0,
          "projected_exit_profit": 0,
          "year": 2024,
          "noi_leased_noidm": 0,
          "debt_yield_leased_noidm": 0.8875046036264547,
          "dscr_leased_noidm": null,
          "yield_on_cost_leased_noidm": 0.6246315122604517,
          "noi_over_last_12_months_noidm": 5020795.47647329,
          "debt_yield_over_last_12_months_noidm": 0.5132885909031263,
          "dscr_over_last_12_months_noidm": 1.2666350275,
          "yield_on_cost_over_last_12_months_noidm": 0.029683066605564412,
          "current_cash_on_cash_over_last_12_months": 0.802478472922063,
          "noi_forward_12_months_noidm": 0,
          "debt_yield_forward_12_months_noidm": 0.13663712607178724,
          "dscr_forward_12_months_noidm": null,
          "yield_on_cost_forward_12_months_noidm": 0.7514512687439938
        },
        {
          "capital_invested": 164339752.50509673,
          "cashflow_liquidation_contribution": -90924129.70377573,
          "cashflow_liquidation_distribution": 102029033.38024339,
          "cashflow_projected_contribution": -80413924.89302523,
          "cashflow_projected_distribution": 175080110.23634344,
          "current_gross_moc": 0.8345063784246044,
          "current_irr": 0.9628710134380388,
          "current_nav": 57946885.56460241,
          "current_profit": 6224801.544451986,
          "current_walt": 3.7153780339,
          "fund_name": "Industrial Fund Example",
          "current_gav": 0,
          "projected_exit_gav": 0,
          "projected_exit_nav": 0,
          "occupancy_rate": 1.5411,
          "projected_exit_invested_capital": 75657988.9276173,
          "projected_exit_gross_moc": 2.2379,
          "projected_exit_irr": 0.5527802572775304,
          "projected_exit_noi": 19503146.041334763,
          "projected_exit_occupancy_rate": 0.3025,
          "projected_exit_profit": 86137619.53115395,
          "year": 2023,
          "noi_leased_noidm": 0,
          "debt_yield_leased_noidm": 0.3898598897302461,
          "dscr_leased_noidm": null,
          "yield_on_cost_leased_noidm": 0.5397967983137305,
          "noi_over_last_12_months_noidm": 23094991.274472184,
          "debt_yield_over_last_12_months_noidm": 0.8670370082168811,
          "dscr_over_last_12_months_noidm": 0,
          "yield_on_cost_over_last_12_months_noidm": 0.34531769819940605,
          "current_cash_on_cash_over_last_12_months": 0.8987906416772715,
          "noi_forward_12_months_noidm": 0,
          "debt_yield_forward_12_months_noidm": 0.8456191862274582,
          "dscr_forward_12_months_noidm": null,
          "yield_on_cost_forward_12_months_noidm": 0.27933869595070837
        },
        {
          "capital_invested": 290250573.7043312,
          "cashflow_liquidation_contribution": 0,
          "cashflow_liquidation_distribution": 0,
          "cashflow_projected_contribution": 0,
          "cashflow_projected_distribution": 0,
          "current_gross_moc": 0.5678257917555021,
          "current_irr": 0.5881399117961824,
          "current_nav": 0,
          "current_profit": 0,
          "current_walt": 6.7884531427,
          "fund_name": "Industrial Fund Example",
          "current_gav": 0,
          "projected_exit_gav": 0,
          "projected_exit_nav": 0,
          "occupancy_rate": 0.8806,
          "projected_exit_invested_capital": 0,
          "projected_exit_gross_moc": null,
          "projected_exit_irr": 0.008100576941900473,
          "projected_exit_noi": 0,
          "projected_exit_occupancy_rate": null,
          "projected_exit_profit": 0,
          "year": 2021,
          "noi_leased_noidm": 0,
          "debt_yield_leased_noidm": 0.6868639320794635,
          "dscr_leased_noidm": null,
          "yield_on_cost_leased_noidm": 0.6819138725039795,
          "noi_over_last_12_months_noidm": 34914230.13320614,
          "debt_yield_over_last_12_months_noidm": 0.21425866092753354,
          "dscr_over_last_12_months_noidm": 1.302421014,
          "yield_on_cost_over_last_12_months_noidm": 0.41919770495082076,
          "current_cash_on_cash_over_last_12_months": 0.31597393488221615,
          "noi_forward_12_months_noidm": 0,
          "debt_yield_forward_12_months_noidm": 0.5425595174845629,
          "dscr_forward_12_months_noidm": null,
          "yield_on_cost_forward_12_months_noidm": 0.6936009244921827
        },
        {
          "capital_invested": 93893414.80370215,
          "cashflow_liquidation_contribution": 0,
          "cashflow_liquidation_distribution": 0,
          "cashflow_projected_contribution": 0,
          "cashflow_projected_distribution": 0,
          "current_gross_moc": 0.9538528660937534,
          "current_irr": 0.028675764930987113,
          "current_nav": 0,
          "current_profit": 0,
          "current_walt": 0,
          "fund_name": "Industrial Fund Example",
          "current_gav": 0,
          "projected_exit_gav": 0,
          "projected_exit_nav": 0,
          "occupancy_rate": 0,
          "projected_exit_invested_capital": 0,
          "projected_exit_gross_moc": null,
          "projected_exit_irr": 0.29338518002666214,
          "projected_exit_noi": 0,
          "projected_exit_occupancy_rate": 0,
          "projected_exit_profit": 0,
          "year": 2024,
          "noi_leased_noidm": 0,
          "debt_yield_leased_noidm": 0.4988775226768519,
          "dscr_leased_noidm": null,
          "yield_on_cost_leased_noidm": 0.36152269927980785,
          "noi_over_last_12_months_noidm": -123779.213673577,
          "debt_yield_over_last_12_months_noidm": 0.8521005045708383,
          "dscr_over_last_12_months_noidm": 0,
          "yield_on_cost_over_last_12_months_noidm": 0.20896278081481667,
          "current_cash_on_cash_over_last_12_months": 0.22074504691233787,
          "noi_forward_12_months_noidm": 0,
          "debt_yield_forward_12_months_noidm": 0.6104595789166728,
          "dscr_forward_12_months_noidm": null,
          "yield_on_cost_forward_12_months_noidm": 0.17634145665786582
        },
        {
          "capital_invested": 11673690.614728065,
          "cashflow_liquidation_contribution": 0,
          "cashflow_liquidation_distribution": 0,
          "cashflow_projected_contribution": 0,
          "cashflow_projected_distribution": 0,
          "current_gross_moc": 0.6590138645440947,
          "current_irr": 0.8301317780123256,
          "current_nav": 0,
          "current_profit": 0,
          "current_walt": 1.5579993601,
          "fund_name": "Industrial Fund Example",
          "current_gav": 0,
          "projected_exit_gav": 0,
          "projected_exit_nav": 0,
          "occupancy_rate": null,
          "projected_exit_invested_capital": 0,
          "projected_exit_gross_moc": null,
          "projected_exit_irr": 0.1475252245712565,
          "projected_exit_noi": 0,
          "projected_exit_occupancy_rate": null,
          "projected_exit_profit": 0,
          "year": 2023,
          "noi_leased_noidm": 0,
          "debt_yield_leased_noidm": 0.4693428131723726,
          "dscr_leased_noidm": null,
          "yield_on_cost_leased_noidm": 0.7154531622576933,
          "noi_over_last_12_months_noidm": 0,
          "debt_yield_over_last_12_months_noidm": 0.6252223536350777,
          "dscr_over_last_12_months_noidm": null,
          "yield_on_cost_over_last_12_months_noidm": 0.04427821408915644,
          "current_cash_on_cash_over_last_12_months": 0.15593584044514863,
          "noi_forward_12_months_noidm": 0,
          "debt_yield_forward_12_months_noidm": 0.9628074878553966,
          "dscr_forward_12_months_noidm": null,
          "yield_on_cost_forward_12_months_noidm": 0.11252507909474263
        },
        {
          "capital_invested": 113120226.14387713,
          "cashflow_liquidation_contribution": 0,
          "cashflow_liquidation_distribution": 0,
          "cashflow_projected_contribution": 0,
          "cashflow_projected_distribution": 0,
          "current_gross_moc": 0.24159827959062008,
          "current_irr": 0.2900236591325658,
          "current_nav": 0,
          "current_profit": 0,
          "current_walt": 7.4094357567,
          "fund_name": "Industrial Fund Example",
          "current_gav": 0,
          "projected_exit_gav": 0,
          "projected_exit_nav": 0,
          "occupancy_rate": null,
          "projected_exit_invested_capital": 0,
          "projected_exit_gross_moc": null,
          "projected_exit_irr": 0.6003392003804113,
          "projected_exit_noi": 0,
          "projected_exit_occupancy_rate": null,
          "projected_exit_profit": 0,
          "year": 2024,
          "noi_leased_noidm": 0,
          "debt_yield_leased_noidm": 0.948750994482419,
          "dscr_leased_noidm": null,
          "yield_on_cost_leased_noidm": 0.08249617415288413,
          "noi_over_last_12_months_noidm": 0,
          "debt_yield_over_last_12_months_noidm": 0.12128208368126459,
          "dscr_over_last_12_months_noidm": null,
          "yield_on_cost_over_last_12_months_noidm": 0.10559277960297886,
          "current_cash_on_cash_over_last_12_months": 0.12681520737995078,
          "noi_forward_12_months_noidm": 0,
          "debt_yield_forward_12_months_noidm": 0.5857061909734862,
          "dscr_forward_12_months_noidm": null,
          "yield_on_cost_forward_12_months_noidm": 0.6517468924658968
        },
        {
          "capital_invested": 142344327.9191576,
          "cashflow_liquidation_contribution": 0,
          "cashflow_liquidation_distribution": 0,
          "cashflow_projected_contribution": 0,
          "cashflow_projected_distribution": 0,
          "current_gross_moc": 0.23641627340353077,
          "current_irr": 0.7868929224969232,
          "current_nav": 0,
          "current_profit": 0,
          "current_walt": 1.3473483164,
          "fund_name": "Industrial Fund Example",
          "current_gav": 0,
          "projected_exit_gav": 0,
          "projected_exit_nav": 0,
          "occupancy_rate": 29.8539,
          "projected_exit_invested_capital": 0,
          "projected_exit_gross_moc": null,
          "projected_exit_irr": 0.033817919818478925,
          "projected_exit_noi": 0,
          "projected_exit_occupancy_rate": null,
          "projected_exit_profit": 0,
          "year": 2024,
          "noi_leased_noidm": 0,
          "debt_yield_leased_noidm": 0.7831214499227181,
          "dscr_leased_noidm": null,
          "yield_on_cost_leased_noidm": 0.1257489354689445,
          "noi_over_last_12_months_noidm": -23636860.109040573,
          "debt_yield_over_last_12_months_noidm": 0.22695976783387828,
          "dscr_over_last_12_months_noidm": 0,
          "yield_on_cost_over_last_12_months_noidm": 0.6335714261182144,
          "current_cash_on_cash_over_last_12_months": 0.12370238673242662,
          "noi_forward_12_months_noidm": 0,
          "debt_yield_forward_12_months_noidm": 0.8950563476236193,
          "dscr_forward_12_months_noidm": null,
          "yield_on_cost_forward_12_months_noidm": 0.9686613286555948
        },
        {
          "capital_invested": 60941584.43818616,
          "cashflow_liquidation_contribution": 0,
          "cashflow_liquidation_distribution": 0,
          "cashflow_projected_contribution": 0,
          "cashflow_projected_distribution": 0,
          "current_gross_moc": 0.36566532388250694,
          "current_irr": 0.48354295773411504,
          "current_nav": 0,
          "current_profit": 0,
          "current_walt": 9.3666666667,
          "fund_name": "Industrial Fund Example",
          "current_gav": 0,
          "projected_exit_gav": 0,
          "projected_exit_nav": 0,
          "occupancy_rate": 1,
          "projected_exit_invested_capital": 0,
          "projected_exit_gross_moc": null,
          "projected_exit_irr": 0.05788791745615851,
          "projected_exit_noi": 0,
          "projected_exit_occupancy_rate": null,
          "projected_exit_profit": 0,
          "year": 2010,
          "noi_leased_noidm": 0,
          "debt_yield_leased_noidm": 0.7106581277729308,
          "dscr_leased_noidm": null,
          "yield_on_cost_leased_noidm": 0.007695120623956386,
          "noi_over_last_12_months_noidm": 4648927.125095912,
          "debt_yield_over_last_12_months_noidm": 0.8104614065246101,
          "dscr_over_last_12_months_noidm": 0,
          "yield_on_cost_over_last_12_months_noidm": 0.44265592004193977,
          "current_cash_on_cash_over_last_12_months": 0.7041674635563816,
          "noi_forward_12_months_noidm": 0,
          "debt_yield_forward_12_months_noidm": 0.2606692909425584,
          "dscr_forward_12_months_noidm": null,
          "yield_on_cost_forward_12_months_noidm": 0.7561302286265958
        },
        {
          "capital_invested": 36268976.808385335,
          "cashflow_liquidation_contribution": 0,
          "cashflow_liquidation_distribution": 0,
          "cashflow_projected_contribution": 0,
          "cashflow_projected_distribution": 0,
          "current_gross_moc": 0.0008679972136638181,
          "current_irr": 0.15713932946542586,
          "current_nav": 0,
          "current_profit": 0,
          "current_walt": 3.9925923656,
          "fund_name": "Industrial Fund Example",
          "current_gav": 0,
          "projected_exit_gav": 0,
          "projected_exit_nav": 0,
          "occupancy_rate": 0.856,
          "projected_exit_invested_capital": 0,
          "projected_exit_gross_moc": null,
          "projected_exit_irr": 0.5541509181028963,
          "projected_exit_noi": 0,
          "projected_exit_occupancy_rate": null,
          "projected_exit_profit": 0,
          "year": 2023,
          "noi_leased_noidm": 0,
          "debt_yield_leased_noidm": 0.9443504678206449,
          "dscr_leased_noidm": null,
          "yield_on_cost_leased_noidm": 0.15973750997007874,
          "noi_over_last_12_months_noidm": 5018892.659816765,
          "debt_yield_over_last_12_months_noidm": 0.580607717773422,
          "dscr_over_last_12_months_noidm": 0,
          "yield_on_cost_over_last_12_months_noidm": 0.2674033289652159,
          "current_cash_on_cash_over_last_12_months": 0.23796923307840678,
          "noi_forward_12_months_noidm": 0,
          "debt_yield_forward_12_months_noidm": 0.7430868269214257,
          "dscr_forward_12_months_noidm": null,
          "yield_on_cost_forward_12_months_noidm": 0.3669529908199043
        },
        {
          "capital_invested": 10799493.019230805,
          "cashflow_liquidation_contribution": 0,
          "cashflow_liquidation_distribution": 0,
          "cashflow_projected_contribution": 0,
          "cashflow_projected_distribution": 0,
          "current_gross_moc": 0.736623903529081,
          "current_irr": 0.04052281708197181,
          "current_nav": 0,
          "current_profit": 0,
          "current_walt": 3.8392224869,
          "fund_name": "Industrial Fund Example",
          "current_gav": 0,
          "projected_exit_gav": 0,
          "projected_exit_nav": 0,
          "occupancy_rate": null,
          "projected_exit_invested_capital": 0,
          "projected_exit_gross_moc": null,
          "projected_exit_irr": 0.47836987927539354,
          "projected_exit_noi": 0,
          "projected_exit_occupancy_rate": null,
          "projected_exit_profit": 0,
          "year": 2019,
          "noi_leased_noidm": 0,
          "debt_yield_leased_noidm": 0.280417755113505,
          "dscr_leased_noidm": null,
          "yield_on_cost_leased_noidm": 0.8365757048814177,
          "noi_over_last_12_months_noidm": 0,
          "debt_yield_over_last_12_months_noidm": 0.18101584469784082,
          "dscr_over_last_12_months_noidm": null,
          "yield_on_cost_over_last_12_months_noidm": 0.692225419497186,
          "current_cash_on_cash_over_last_12_months": 0.413729019101979,
          "noi_forward_12_months_noidm": 0,
          "debt_yield_forward_12_months_noidm": 0.9141821177316153,
          "dscr_forward_12_months_noidm": null,
          "yield_on_cost_forward_12_months_noidm": 0.7918018996899467
        },
        {
          "capital_invested": 65248693.81254931,
          "cashflow_liquidation_contribution": 0,
          "cashflow_liquidation_distribution": 0,
          "cashflow_projected_contribution": 0,
          "cashflow_projected_distribution": 0,
          "current_gross_moc": 0.2853806804713276,
          "current_irr": 0.7428267191018039,
          "current_nav": 0,
          "current_profit": 0,
          "current_walt": 2.4922075993,
          "fund_name": "Industrial Fund Example",
          "current_gav": 0,
          "projected_exit_gav": 0,
          "projected_exit_nav": 0,
          "occupancy_rate": 0.9069,
          "projected_exit_invested_capital": 0,
          "projected_exit_gross_moc": null,
          "projected_exit_irr": 0.803938582739364,
          "projected_exit_noi": 0,
          "projected_exit_occupancy_rate": null,
          "projected_exit_profit": 0,
          "year": 2008,
          "noi_leased_noidm": 0,
          "debt_yield_leased_noidm": 0.7152902611221209,
          "dscr_leased_noidm": null,
          "yield_on_cost_leased_noidm": 0.006327933043831724,
          "noi_over_last_12_months_noidm": 5697337.589864621,
          "debt_yield_over_last_12_months_noidm": 0.6414782473027111,
          "dscr_over_last_12_months_noidm": 0,
          "yield_on_cost_over_last_12_months_noidm": 0.09111738996181873,
          "current_cash_on_cash_over_last_12_months": 0.027595377677645083,
          "noi_forward_12_months_noidm": 0,
          "debt_yield_forward_12_months_noidm": 0.8715862226747113,
          "dscr_forward_12_months_noidm": null,
          "yield_on_cost_forward_12_months_noidm": 0.5437377562188184
        },
        {
          "capital_invested": 4964466.636582182,
          "cashflow_liquidation_contribution": 0,
          "cashflow_liquidation_distribution": 0,
          "cashflow_projected_contribution": 0,
          "cashflow_projected_distribution": 0,
          "current_gross_moc": 0.8281147075947937,
          "current_irr": 0.18133527454007436,
          "current_nav": 0,
          "current_profit": 0,
          "current_walt": 4.6001332912,
          "fund_name": "Industrial Fund Example",
          "current_gav": 0,
          "projected_exit_gav": 0,
          "projected_exit_nav": 0,
          "occupancy_rate": 1.5566,
          "projected_exit_invested_capital": 0,
          "projected_exit_gross_moc": null,
          "projected_exit_irr": 0.9431431539135057,
          "projected_exit_noi": 0,
          "projected_exit_occupancy_rate": null,
          "projected_exit_profit": 0,
          "year": 2022,
          "noi_leased_noidm": 0,
          "debt_yield_leased_noidm": 0.6043223244498354,
          "dscr_leased_noidm": null,
          "yield_on_cost_leased_noidm": 0.2940804475662936,
          "noi_over_last_12_months_noidm": 63683.891938372864,
          "debt_yield_over_last_12_months_noidm": 0.4596642673322243,
          "dscr_over_last_12_months_noidm": 0,
          "yield_on_cost_over_last_12_months_noidm": 0.6341641422591595,
          "current_cash_on_cash_over_last_12_months": 0.5792652291328185,
          "noi_forward_12_months_noidm": 0,
          "debt_yield_forward_12_months_noidm": 0.527744449417089,
          "dscr_forward_12_months_noidm": null,
          "yield_on_cost_forward_12_months_noidm": 0.14439491333233745
        },
        {
          "capital_invested": 23218690.55664601,
          "cashflow_liquidation_contribution": 0,
          "cashflow_liquidation_distribution": 0,
          "cashflow_projected_contribution": 0,
          "cashflow_projected_distribution": 0,
          "current_gross_moc": 0.9358462514760948,
          "current_irr": 0.554498015650289,
          "current_nav": 0,
          "current_profit": 0,
          "current_walt": 0,
          "fund_name": "Industrial Fund Example",
          "current_gav": 0,
          "projected_exit_gav": 0,
          "projected_exit_nav": 0,
          "occupancy_rate": 0,
          "projected_exit_invested_capital": 0,
          "projected_exit_gross_moc": null,
          "projected_exit_irr": 0.2355996446827321,
          "projected_exit_noi": 0,
          "projected_exit_occupancy_rate": 0,
          "projected_exit_profit": 0,
          "year": 2023,
          "noi_leased_noidm": 0,
          "debt_yield_leased_noidm": 0.007782844759686047,
          "dscr_leased_noidm": null,
          "yield_on_cost_leased_noidm": 0.4935071798144812,
          "noi_over_last_12_months_noidm": -38519.945646464104,
          "debt_yield_over_last_12_months_noidm": 0.24361937789055965,
          "dscr_over_last_12_months_noidm": 0,
          "yield_on_cost_over_last_12_months_noidm": 0.9714860012654797,
          "current_cash_on_cash_over_last_12_months": 0.2005006567508828,
          "noi_forward_12_months_noidm": 0,
          "debt_yield_forward_12_months_noidm": 0.47660824432000026,
          "dscr_forward_12_months_noidm": null,
          "yield_on_cost_forward_12_months_noidm": 0.9252445323143799
        },
        {
          "capital_invested": 0,
          "cashflow_liquidation_contribution": 0,
          "cashflow_liquidation_distribution": 0,
          "cashflow_projected_contribution": 0,
          "cashflow_projected_distribution": 0,
          "current_gross_moc": 0.8775845639190412,
          "current_irr": 0.5215402520396378,
          "current_nav": 0,
          "current_profit": 0,
          "current_walt": 0,
          "fund_name": "Industrial Fund Example",
          "current_gav": 0,
          "projected_exit_gav": 0,
          "projected_exit_nav": 0,
          "occupancy_rate": null,
          "projected_exit_invested_capital": 0,
          "projected_exit_gross_moc": null,
          "projected_exit_irr": 0.7308691262857213,
          "projected_exit_noi": 0,
          "projected_exit_occupancy_rate": 0,
          "projected_exit_profit": 0,
          "year": 2022,
          "noi_leased_noidm": 0,
          "debt_yield_leased_noidm": 0.6109652497473894,
          "dscr_leased_noidm": null,
          "yield_on_cost_leased_noidm": 0.35979606396841657,
          "noi_over_last_12_months_noidm": 790027.6458346565,
          "debt_yield_over_last_12_months_noidm": 0.7386203903524403,
          "dscr_over_last_12_months_noidm": 0,
          "yield_on_cost_over_last_12_months_noidm": 0.7139876149241758,
          "current_cash_on_cash_over_last_12_months": 0.8746243725856234,
          "noi_forward_12_months_noidm": 0,
          "debt_yield_forward_12_months_noidm": 0.9388600976207064,
          "dscr_forward_12_months_noidm": null,
          "yield_on_cost_forward_12_months_noidm": 0.14257800550708033
        }
      ],
      "dataUpdateCount": 1,
      "dataUpdatedAt": 1742303451149,
      "error": null,
      "errorUpdateCount": 0,
      "errorUpdatedAt": 0,
      "fetchFailureCount": 0,
      "fetchFailureReason": null,
      "fetchMeta": null,
      "isInvalidated": false,
      "status": "success",
      "fetchStatus": "idle"
    }
  },
  {
    "queryKey": [
      "properties",
      "propertiesGeography",
      {
        "status": "all",
        "page_size": "-1"
      }
    ],
    "state": {
      "data": {
        "next": null,
        "previous": null,
        "count": 155,
        "total_pages": 1,
        "results": [
          {
            "yardi_property_code": "1234-xyz",
            "fund_name": "Industrial Fund Example",
            "address": "2511 Glenallan Ave",
            "city": "Silver Spring",
            "state": "MD",
            "region": "Mid Atlantic",
            "latitude": 39.14504820289957,
            "longitude": -75.09340167593334,
            "rentable_building_area": 0
          },
          {
            "yardi_property_code": "1234-xyz",
            "fund_name": "Industrial Fund Example",
            "address": "287 E. Indiantown Road",
            "city": "Jupiter",
            "state": "FL",
            "region": "Southeast",
            "latitude": 27.319367899836315,
            "longitude": -78.63984380127573,
            "rentable_building_area": 66529
          },
          {
            "yardi_property_code": "1234-xyz",
            "fund_name": "Industrial Fund Example",
            "address": "45/47 Veronica Avenue",
            "city": "Somerise",
            "state": "NJ",
            "region": "Northeast",
            "latitude": 40.64270285884987,
            "longitude": -72.22910713691553,
            "rentable_building_area": 581090
          },
          {
            "yardi_property_code": "1234-xyz",
            "fund_name": "Industrial Fund Example",
            "address": "838 Haley Flat",
            "city": "",
            "state": "",
            "region": "Mid Atlantic",
            "latitude": 84.7065,
            "longitude": 13.4557,
            "rentable_building_area": 437210
          },
          {
            "yardi_property_code": "1234-xyz",
            "fund_name": "Industrial Fund Example",
            "address": "12201 Indian Creek Court",
            "city": "Beltsville",
            "state": "MD",
            "region": null,
            "latitude": 39.145258229183995,
            "longitude": -74.52089770546233,
            "rentable_building_area": 27347
          },
          {
            "yardi_property_code": "1234-xyz",
            "fund_name": "Industrial Fund Example",
            "address": "22370 Davis Drive",
            "city": "Sterling",
            "state": "VA",
            "region": null,
            "latitude": 38.59525693815622,
            "longitude": -73.87850039761284,
            "rentable_building_area": 64455
          },
          {
            "yardi_property_code": "1234-xyz",
            "fund_name": "Industrial Fund Example",
            "address": "22520 Gateway Center Drive",
            "city": "Clarksburg",
            "state": "MD",
            "region": null,
            "latitude": 39.46349935034653,
            "longitude": -74.4387761222978,
            "rentable_building_area": 45574
          },
          {
            "yardi_property_code": "1234-xyz",
            "fund_name": "Industrial Fund Example",
            "address": "14420-14434 Albemarle Point Place",
            "city": "Chantilly",
            "state": "VA",
            "region": "Mid Atlantic",
            "latitude": 38.498736506768076,
            "longitude": -74.11648005346747,
            "rentable_building_area": 338955
          },
          {
            "yardi_property_code": "1234-xyz",
            "fund_name": "Industrial Fund Example",
            "address": "7301 Calhoun Place",
            "city": "Rockville",
            "state": "MD",
            "region": null,
            "latitude": 39.49334205274778,
            "longitude": -74.58111363997335,
            "rentable_building_area": 64365
          },
          {
            "yardi_property_code": "1234-xyz",
            "fund_name": "Industrial Fund Example",
            "address": "22600 Gateway Center Drive",
            "city": "Clarksburg",
            "state": "MD",
            "region": null,
            "latitude": 39.19590366117588,
            "longitude": -76.72084364270226,
            "rentable_building_area": 36732
          },
          {
            "yardi_property_code": "1234-xyz",
            "fund_name": "Industrial Fund Example",
            "address": "Business Logistics Park - Building 7",
            "city": "Wilmington",
            "state": "IL",
            "region": null,
            "latitude": -32.3681,
            "longitude": -52.7682,
            "rentable_building_area": 950671
          },
          {
            "yardi_property_code": "1234-xyz",
            "fund_name": "Industrial Fund Example",
            "address": "3323 NE 163RD ST",
            "city": "MIAMI",
            "state": "FL",
            "region": "Midwest",
            "latitude": 25.481050308175234,
            "longitude": -79.06272068746344,
            "rentable_building_area": 0
          },
          {
            "yardi_property_code": "1234-xyz",
            "fund_name": "Industrial Fund Example",
            "address": "30131 ELION BLVD",
            "city": "WILMINGTON",
            "state": "IL",
            "region": "Midwest",
            "latitude": 41.08947993727085,
            "longitude": -86.87024446701484,
            "rentable_building_area": 1619558
          },
          {
            "yardi_property_code": "1234-xyz",
            "fund_name": "Industrial Fund Example",
            "address": "63658 W Broadway",
            "city": "",
            "state": "",
            "region": "Southeast",
            "latitude": -78.3422,
            "longitude": -5.7283,
            "rentable_building_area": 908258
          },
          {
            "yardi_property_code": "1234-xyz",
            "fund_name": "Industrial Fund Example",
            "address": "3323 NE 163RD ST",
            "city": "MIAMI",
            "state": "FL",
            "region": null,
            "latitude": 25.870004346208685,
            "longitude": -77.96513183611643,
            "rentable_building_area": 0
          },
          {
            "yardi_property_code": "1234-xyz",
            "fund_name": "Industrial Fund Example",
            "address": "341 North Delilah Street",
            "city": "Corona",
            "state": "CA",
            "region": "West",
            "latitude": 33.77293744471135,
            "longitude": -118.11295320390522,
            "rentable_building_area": 75061
          },
          {
            "yardi_property_code": "1234-xyz",
            "fund_name": "Industrial Fund Example",
            "address": "5803 Newton Dr",
            "city": "Carlsbad",
            "state": "CA",
            "region": "West",
            "latitude": 32.92232684009342,
            "longitude": -116.42957858839354,
            "rentable_building_area": 100537
          },
          {
            "yardi_property_code": "1234-xyz",
            "fund_name": "Industrial Fund Example",
            "address": "1111 Pioneer Way",
            "city": "El Cajon",
            "state": "CA",
            "region": "West",
            "latitude": 32.879802695399384,
            "longitude": -115.37347708296626,
            "rentable_building_area": 117019
          },
          {
            "yardi_property_code": "1234-xyz",
            "fund_name": "Industrial Fund Example",
            "address": "1515 75th Street SW",
            "city": "Everett",
            "state": "WA",
            "region": "West",
            "latitude": 47.95230897828404,
            "longitude": -120.95278056479597,
            "rentable_building_area": 141229
          },
          {
            "yardi_property_code": "1234-xyz",
            "fund_name": "Industrial Fund Example",
            "address": "1200 Jersey Ave",
            "city": "North Brunswick",
            "state": "NJ",
            "region": "Northeast",
            "latitude": 39.85175932933604,
            "longitude": -72.72297901772602,
            "rentable_building_area": 119665
          },
          {
            "yardi_property_code": "1234-xyz",
            "fund_name": "Industrial Fund Example",
            "address": "2465 Ash Street",
            "city": "Vista",
            "state": "CA",
            "region": "West",
            "latitude": 33.1092636814471,
            "longitude": -115.56348314967285,
            "rentable_building_area": 56102
          },
          {
            "yardi_property_code": "1234-xyz",
            "fund_name": "Industrial Fund Example",
            "address": "2281 Griffin Road",
            "city": "Fort Lauderdale",
            "state": "FL",
            "region": "Southeast",
            "latitude": 25.735410755642512,
            "longitude": -75.87607279859878,
            "rentable_building_area": 149229
          },
          {
            "yardi_property_code": "1234-xyz",
            "fund_name": "Industrial Fund Example",
            "address": "1000-1108 Jefferson Ave",
            "city": "Elizabeth",
            "state": "NJ",
            "region": "Northeast",
            "latitude": 40.66174324512869,
            "longitude": -73.22454305369884,
            "rentable_building_area": 279244
          },
          {
            "yardi_property_code": "1234-xyz",
            "fund_name": "Industrial Fund Example",
            "address": "13801 NW 4th Street",
            "city": "Sunrise",
            "state": "FL",
            "region": "Southeast",
            "latitude": 26.23449135023921,
            "longitude": -79.40913072230201,
            "rentable_building_area": 64849
          },
          {
            "yardi_property_code": "1234-xyz",
            "fund_name": "Industrial Fund Example",
            "address": "4900-4950 Edison Avenue",
            "city": "Chino",
            "state": "CA",
            "region": "West",
            "latitude": 34.14685780803676,
            "longitude": -118.07582276547568,
            "rentable_building_area": 178601
          },
          {
            "yardi_property_code": "1234-xyz",
            "fund_name": "Industrial Fund Example",
            "address": "13800/13900 NW 2nd Street",
            "city": "Sunrise",
            "state": "FL",
            "region": "Southeast",
            "latitude": 26.149780395816162,
            "longitude": -79.33946583775182,
            "rentable_building_area": 445807
          },
          {
            "yardi_property_code": "1234-xyz",
            "fund_name": "Industrial Fund Example",
            "address": "14599 NW 8th Street",
            "city": "Sunrise",
            "state": "FL",
            "region": "Southeast",
            "latitude": 26.15025579223992,
            "longitude": -81.34358073061041,
            "rentable_building_area": 198196
          },
          {
            "yardi_property_code": "1234-xyz",
            "fund_name": "Industrial Fund Example",
            "address": "1401 South Kirkman Road",
            "city": "Orlando",
            "state": "FL",
            "region": null,
            "latitude": 28.17404789416322,
            "longitude": -80.83192071879898,
            "rentable_building_area": 0
          },
          {
            "yardi_property_code": "1234-xyz",
            "fund_name": "Industrial Fund Example",
            "address": "103 Elm Street",
            "city": "Enfield",
            "state": "CT",
            "region": "Northeast",
            "latitude": 42.112640596488795,
            "longitude": -71.83198291955037,
            "rentable_building_area": 0
          },
          {
            "yardi_property_code": "1234-xyz",
            "fund_name": "Industrial Fund Example",
            "address": "2875 NE 191 STREET",
            "city": "AVENTURA",
            "state": "FL",
            "region": null,
            "latitude": 26.574918754492344,
            "longitude": -80.1381462578871,
            "rentable_building_area": 0
          },
          {
            "yardi_property_code": "1234-xyz",
            "fund_name": "Industrial Fund Example",
            "address": "901 W Indiantown Road",
            "city": "Jupiter",
            "state": "FL",
            "region": "Southeast",
            "latitude": 27.00128987754087,
            "longitude": -78.98021918545311,
            "rentable_building_area": 48925
          },
          {
            "yardi_property_code": "1234-xyz",
            "fund_name": "Industrial Fund Example",
            "address": "6649 Catharpin Road",
            "city": "Gainesville",
            "state": "VA",
            "region": "Mid Atlantic",
            "latitude": 38.58826273037025,
            "longitude": -76.84011850143914,
            "rentable_building_area": 0
          },
          {
            "yardi_property_code": "1234-xyz",
            "fund_name": "Industrial Fund Example",
            "address": "5001 Hiatus Road",
            "city": "Sunrise",
            "state": "FL",
            "region": "Southeast",
            "latitude": 26.209358171941993,
            "longitude": -76.06615080676697,
            "rentable_building_area": 0
          },
          {
            "yardi_property_code": "1234-xyz",
            "fund_name": "Industrial Fund Example",
            "address": "225 Radio Drive",
            "city": "Woodbury",
            "state": "MN",
            "region": "Midwest",
            "latitude": 44.33959846359487,
            "longitude": -91.3806091449843,
            "rentable_building_area": 2
          },
          {
            "yardi_property_code": "1234-xyz",
            "fund_name": "Industrial Fund Example",
            "address": "1814 W Tennessee Street",
            "city": "Tallahassee",
            "state": "FL",
            "region": "Southeast",
            "latitude": 30.23925628337541,
            "longitude": -83.51619417757898,
            "rentable_building_area": 0
          },
          {
            "yardi_property_code": "1234-xyz",
            "fund_name": "Industrial Fund Example",
            "address": "7900 West McNab Road",
            "city": "North Lauderdale",
            "state": "FL",
            "region": "Southeast",
            "latitude": 25.865153498665023,
            "longitude": -79.72087504805916,
            "rentable_building_area": 0
          },
          {
            "yardi_property_code": "1234-xyz",
            "fund_name": "Industrial Fund Example",
            "address": "3400 Park Central Boulevard North",
            "city": "Pompano Beach",
            "state": "FL",
            "region": "Southeast",
            "latitude": 26.08974435253301,
            "longitude": -79.62757121199512,
            "rentable_building_area": 28234
          },
          {
            "yardi_property_code": "1234-xyz",
            "fund_name": "Industrial Fund Example",
            "address": "11351 NW 36 Terrace",
            "city": "Doral",
            "state": "FL",
            "region": "Southeast",
            "latitude": 26.320265319441376,
            "longitude": -76.65630548200622,
            "rentable_building_area": 31811
          },
          {
            "yardi_property_code": "1234-xyz",
            "fund_name": "Industrial Fund Example",
            "address": "20450 Century Boulevard",
            "city": "Germantown",
            "state": "MD",
            "region": null,
            "latitude": 39.18414504653509,
            "longitude": -78.14203560634581,
            "rentable_building_area": 0
          },
          {
            "yardi_property_code": "1234-xyz",
            "fund_name": "Industrial Fund Example",
            "address": "5280 NW 165 Street",
            "city": "Hialeah",
            "state": "FL",
            "region": "Southeast",
            "latitude": 26.09317389059357,
            "longitude": -82.08328460034991,
            "rentable_building_area": 31768
          },
          {
            "yardi_property_code": "1234-xyz",
            "fund_name": "Industrial Fund Example",
            "address": "3323 NE 163RD ST",
            "city": "MIAMI",
            "state": "FL",
            "region": null,
            "latitude": 25.762853918868643,
            "longitude": -77.81224633461626,
            "rentable_building_area": 0
          },
          {
            "yardi_property_code": "1234-xyz",
            "fund_name": "Industrial Fund Example",
            "address": "230 W 97TH ST",
            "city": "New York",
            "state": "NY",
            "region": null,
            "latitude": 40.317297719768455,
            "longitude": -71.2785448189601,
            "rentable_building_area": 8036
          },
          {
            "yardi_property_code": "1234-xyz",
            "fund_name": "Industrial Fund Example",
            "address": "3032 Hennepin Ave",
            "city": "Minneapolis",
            "state": "MN",
            "region": "Midwest",
            "latitude": 44.51395844932387,
            "longitude": -93.88683577759652,
            "rentable_building_area": 26873
          },
          {
            "yardi_property_code": "1234-xyz",
            "fund_name": "Industrial Fund Example",
            "address": "1501 NE 26th Street & NE 26th Drive",
            "city": "Wilton Manors",
            "state": "FL",
            "region": null,
            "latitude": 26.315004866246383,
            "longitude": -78.51680313638205,
            "rentable_building_area": 25813
          },
          {
            "yardi_property_code": "1234-xyz",
            "fund_name": "Industrial Fund Example",
            "address": "Mansfield Road West",
            "city": "Mansfield",
            "state": "NJ",
            "region": null,
            "latitude": -87.6656,
            "longitude": -160.4263,
            "rentable_building_area": 471439
          },
          {
            "yardi_property_code": "1234-xyz",
            "fund_name": "Industrial Fund Example",
            "address": "3323 NE 163RD ST",
            "city": "MIAMI",
            "state": "FL",
            "region": null,
            "latitude": 25.73862229913313,
            "longitude": -79.14044017276817,
            "rentable_building_area": 0
          },
          {
            "yardi_property_code": "1234-xyz",
            "fund_name": "Industrial Fund Example",
            "address": "12633 Georgia Avenue",
            "city": "Silver Spring",
            "state": "MD",
            "region": "Mid Atlantic",
            "latitude": 38.864716541196266,
            "longitude": -76.17028528354555,
            "rentable_building_area": 0
          },
          {
            "yardi_property_code": "1234-xyz",
            "fund_name": "Industrial Fund Example",
            "address": "7300 Calhoun Place",
            "city": "Rockville",
            "state": "MD",
            "region": null,
            "latitude": 40.04975244138069,
            "longitude": -76.13549636788794,
            "rentable_building_area": 78405
          },
          {
            "yardi_property_code": "1234-xyz",
            "fund_name": "Industrial Fund Example",
            "address": "405 Glenn Drive",
            "city": "Sterling",
            "state": "VA",
            "region": null,
            "latitude": 38.831850653628436,
            "longitude": -75.34868379231321,
            "rentable_building_area": 102219
          },
          {
            "yardi_property_code": "1234-xyz",
            "fund_name": "Industrial Fund Example",
            "address": "12000 Indian Creek Court",
            "city": "Beltsville",
            "state": "MD",
            "region": null,
            "latitude": 38.798208408096265,
            "longitude": -73.65071061097736,
            "rentable_building_area": 56271
          },
          {
            "yardi_property_code": "1234-xyz",
            "fund_name": "Industrial Fund Example",
            "address": "22455 Davis Drive",
            "city": "Sterling",
            "state": "VA",
            "region": null,
            "latitude": 39.15050592461614,
            "longitude": -75.75674533180717,
            "rentable_building_area": 72896
          },
          {
            "yardi_property_code": "1234-xyz",
            "fund_name": "Industrial Fund Example",
            "address": "3680-3863 Centerview Drive",
            "city": "Chantilly",
            "state": "VA",
            "region": "Mid Atlantic",
            "latitude": 38.71774662828976,
            "longitude": -76.30374586320445,
            "rentable_building_area": 433716
          },
          {
            "yardi_property_code": "1234-xyz",
            "fund_name": "Industrial Fund Example",
            "address": "22400 Davis Drive",
            "city": "Sterling",
            "state": "VA",
            "region": null,
            "latitude": 38.53141239584405,
            "longitude": -75.26701145398039,
            "rentable_building_area": 70901
          },
          {
            "yardi_property_code": "1234-xyz",
            "fund_name": "Industrial Fund Example",
            "address": "22560 Glenn Drive",
            "city": "Sterling",
            "state": "VA",
            "region": null,
            "latitude": 39.23125505191088,
            "longitude": -74.61171907355218,
            "rentable_building_area": 76649
          },
          {
            "yardi_property_code": "1234-xyz",
            "fund_name": "Industrial Fund Example",
            "address": "12051 Indian Creek Court",
            "city": "Beltsville",
            "state": "MD",
            "region": null,
            "latitude": 39.21387675498168,
            "longitude": -76.74919372828788,
            "rentable_building_area": 86682
          },
          {
            "yardi_property_code": "1234-xyz",
            "fund_name": "Industrial Fund Example",
            "address": "3323 NE 163RD ST",
            "city": "MIAMI",
            "state": "FL",
            "region": null,
            "latitude": 26.13160999273038,
            "longitude": -77.6109033819462,
            "rentable_building_area": 0
          },
          {
            "yardi_property_code": "1234-xyz",
            "fund_name": "Industrial Fund Example",
            "address": "Business Logistics Park - Building 6",
            "city": "Wilmington",
            "state": "IL",
            "region": null,
            "latitude": 6.4895,
            "longitude": 73.0649,
            "rentable_building_area": 1162916
          },
          {
            "yardi_property_code": "1234-xyz",
            "fund_name": "Industrial Fund Example",
            "address": "30260 S GRAASKAMP BLVD",
            "city": "WILMINGTON",
            "state": "IL",
            "region": "Midwest",
            "latitude": 41.41614202943561,
            "longitude": -87.70661812155774,
            "rentable_building_area": 957216
          },
          {
            "yardi_property_code": "1234-xyz",
            "fund_name": "Industrial Fund Example",
            "address": "3323 NE 163RD ST",
            "city": "MIAMI",
            "state": "FL",
            "region": null,
            "latitude": 26.190151499404593,
            "longitude": -77.24419367662883,
            "rentable_building_area": 148424
          },
          {
            "yardi_property_code": "1234-xyz",
            "fund_name": "Industrial Fund Example",
            "address": "3323 NE 163RD ST",
            "city": "MIAMI",
            "state": "FL",
            "region": null,
            "latitude": 26.02901401171467,
            "longitude": -79.5154909027972,
            "rentable_building_area": 155250
          },
          {
            "yardi_property_code": "1234-xyz",
            "fund_name": "Industrial Fund Example",
            "address": "3323 NE 163RD ST",
            "city": "MIAMI",
            "state": "FL",
            "region": null,
            "latitude": 25.70584473238062,
            "longitude": -76.94273853858658,
            "rentable_building_area": 68623
          },
          {
            "yardi_property_code": "1234-xyz",
            "fund_name": "Industrial Fund Example",
            "address": "600 SW 10TH ST",
            "city": "Renton",
            "state": "WA",
            "region": "West",
            "latitude": 47.1808109701723,
            "longitude": -120.84772871214804,
            "rentable_building_area": 142389
          },
          {
            "yardi_property_code": "1234-xyz",
            "fund_name": "Industrial Fund Example",
            "address": "33401 and 33441 Central Avenue",
            "city": "Union City",
            "state": "CA",
            "region": "West",
            "latitude": 38.085877617349304,
            "longitude": -121.78343196132306,
            "rentable_building_area": 123480
          },
          {
            "yardi_property_code": "1234-xyz",
            "fund_name": "Industrial Fund Example",
            "address": "43 Stults Road",
            "city": "South Brunswick",
            "state": "NJ",
            "region": "Northeast",
            "latitude": 39.7463128766915,
            "longitude": -70.47697025271455,
            "rentable_building_area": 122833
          },
          {
            "yardi_property_code": "1234-xyz",
            "fund_name": "Industrial Fund Example",
            "address": "315-325 First Street",
            "city": "Elizabeth",
            "state": "NJ",
            "region": "Northeast",
            "latitude": 41.00194620985515,
            "longitude": -72.62900039897647,
            "rentable_building_area": 331418
          },
          {
            "yardi_property_code": "1234-xyz",
            "fund_name": "Industrial Fund Example",
            "address": "4225 Hacienda Dr",
            "city": "Pleasanton",
            "state": "CA",
            "region": "West",
            "latitude": 37.64303320473585,
            "longitude": -121.05479629788931,
            "rentable_building_area": 525618
          },
          {
            "yardi_property_code": "1234-xyz",
            "fund_name": "Industrial Fund Example",
            "address": "6212 Corte del Abeto",
            "city": "Carlsbad",
            "state": "CA",
            "region": "West",
            "latitude": 33.01428255412602,
            "longitude": -116.89375277121735,
            "rentable_building_area": 61033
          },
          {
            "yardi_property_code": "1234-xyz",
            "fund_name": "Industrial Fund Example",
            "address": "6955 Consolidated Way",
            "city": "San Diego",
            "state": "CA",
            "region": "West",
            "latitude": 32.57665672886634,
            "longitude": -116.91937501444019,
            "rentable_building_area": 71137
          },
          {
            "yardi_property_code": "1234-xyz",
            "fund_name": "Industrial Fund Example",
            "address": "1200 SW 35th Ave",
            "city": "Boynton Beach",
            "state": "FL",
            "region": "Southeast",
            "latitude": 26.156680429351667,
            "longitude": -79.82083038899376,
            "rentable_building_area": 242965
          },
          {
            "yardi_property_code": "1234-xyz",
            "fund_name": "Industrial Fund Example",
            "address": "111 Internationale Blvd",
            "city": "Glendale Heights",
            "state": "IL",
            "region": "Midwest",
            "latitude": 41.806744637596836,
            "longitude": -85.47804165120522,
            "rentable_building_area": 50580
          },
          {
            "yardi_property_code": "1234-xyz",
            "fund_name": "Industrial Fund Example",
            "address": "43035 John Mosby Highway",
            "city": "Chantilly",
            "state": "VA",
            "region": "Mid Atlantic",
            "latitude": 39.62041523254567,
            "longitude": -74.1080468863121,
            "rentable_building_area": 225525
          },
          {
            "yardi_property_code": "1234-xyz",
            "fund_name": "Industrial Fund Example",
            "address": "600 Apgar Drive",
            "city": "Somerise",
            "state": "NJ",
            "region": "Northeast",
            "latitude": 40.907133548227414,
            "longitude": -70.35271365526617,
            "rentable_building_area": 108393
          },
          {
            "yardi_property_code": "1234-xyz",
            "fund_name": "Industrial Fund Example",
            "address": "7525 N. State Road 7",
            "city": "Parkland",
            "state": "FL",
            "region": "Southeast",
            "latitude": 26.18851661442908,
            "longitude": -79.4804438472549,
            "rentable_building_area": 0
          },
          {
            "yardi_property_code": "1234-xyz",
            "fund_name": "Industrial Fund Example",
            "address": "7425 NW 79th Street",
            "city": "Medley",
            "state": "FL",
            "region": "Southeast",
            "latitude": 25.265409016822918,
            "longitude": -76.41241850672179,
            "rentable_building_area": 84423
          },
          {
            "yardi_property_code": "1234-xyz",
            "fund_name": "Industrial Fund Example",
            "address": "110 8th Avenue",
            "city": "New York",
            "state": "NY",
            "region": "Northeast",
            "latitude": 40.53777751338422,
            "longitude": -73.88985877961711,
            "rentable_building_area": 0
          },
          {
            "yardi_property_code": "1234-xyz",
            "fund_name": "Industrial Fund Example",
            "address": "102-116 8th Avenue",
            "city": "New York",
            "state": "NY",
            "region": "Northeast",
            "latitude": 40.430031178456154,
            "longitude": -71.06237223057641,
            "rentable_building_area": 0
          },
          {
            "yardi_property_code": "1234-xyz",
            "fund_name": "Industrial Fund Example",
            "address": "1800 N. Commerce Pkwy",
            "city": "Weston",
            "state": "FL",
            "region": "Southeast",
            "latitude": 26.39459862376528,
            "longitude": -76.71981812367041,
            "rentable_building_area": 56944
          },
          {
            "yardi_property_code": "1234-xyz",
            "fund_name": "Industrial Fund Example",
            "address": "1698 ALTON RD",
            "city": "Miami Beach",
            "state": "FL",
            "region": null,
            "latitude": 24.964460558628172,
            "longitude": -78.92475857332836,
            "rentable_building_area": 0
          },
          {
            "yardi_property_code": "1234-xyz",
            "fund_name": "Industrial Fund Example",
            "address": "1698 ALTON RD",
            "city": "MIAMI BEACH",
            "state": "FL",
            "region": "Southeast",
            "latitude": 25.912258795517918,
            "longitude": -78.65759299954838,
            "rentable_building_area": 73626
          },
          {
            "yardi_property_code": "1234-xyz",
            "fund_name": "Industrial Fund Example",
            "address": "4100 NEWBRUNSWICK AVE",
            "city": "Piscataway",
            "state": "NJ",
            "region": null,
            "latitude": 41.080569740185354,
            "longitude": -70.57982105881075,
            "rentable_building_area": 0
          },
          {
            "yardi_property_code": "1234-xyz",
            "fund_name": "Industrial Fund Example",
            "address": "244 O'Conner Causeway",
            "city": "",
            "state": "NJ",
            "region": null,
            "latitude": -41.3966,
            "longitude": 105.0276,
            "rentable_building_area": 0
          },
          {
            "yardi_property_code": "1234-xyz",
            "fund_name": "Industrial Fund Example",
            "address": "6435 Virginia Manor",
            "city": "Beltsville",
            "state": "MD",
            "region": null,
            "latitude": 38.90162290449519,
            "longitude": -76.0946170727175,
            "rentable_building_area": 70716
          },
          {
            "yardi_property_code": "1234-xyz",
            "fund_name": "Industrial Fund Example",
            "address": "370 Mohr Forges",
            "city": "",
            "state": "",
            "region": "Mid Atlantic",
            "latitude": -38.6483,
            "longitude": 75.6848,
            "rentable_building_area": 172761
          },
          {
            "yardi_property_code": "1234-xyz",
            "fund_name": "Industrial Fund Example",
            "address": "22616 Gateway Center Drive",
            "city": "Clarksburg",
            "state": "MD",
            "region": null,
            "latitude": 39.70466663078318,
            "longitude": -75.09101018949526,
            "rentable_building_area": 64896
          },
          {
            "yardi_property_code": "1234-xyz",
            "fund_name": "Industrial Fund Example",
            "address": "3323 NE 163RD ST",
            "city": "MIAMI",
            "state": "FL",
            "region": null,
            "latitude": 25.685710760757406,
            "longitude": -78.00483844887344,
            "rentable_building_area": 0
          },
          {
            "yardi_property_code": "1234-xyz",
            "fund_name": "Industrial Fund Example",
            "address": "403 Glenn Drive",
            "city": "Sterling",
            "state": "VA",
            "region": null,
            "latitude": 38.701011098500295,
            "longitude": -75.99319805451026,
            "rentable_building_area": 136558
          },
          {
            "yardi_property_code": "1234-xyz",
            "fund_name": "Industrial Fund Example",
            "address": "12040 Indian Creek Court",
            "city": "Beltsville",
            "state": "MD",
            "region": null,
            "latitude": 38.88633627196001,
            "longitude": -76.82251292643103,
            "rentable_building_area": 25466
          },
          {
            "yardi_property_code": "1234-xyz",
            "fund_name": "Industrial Fund Example",
            "address": "6501 Virginia Manor",
            "city": "Beltsville",
            "state": "MD",
            "region": null,
            "latitude": 38.47374543173541,
            "longitude": -75.26762169804103,
            "rentable_building_area": 35889
          },
          {
            "yardi_property_code": "1234-xyz",
            "fund_name": "Industrial Fund Example",
            "address": "22516 Gateway Center Drive",
            "city": "Clarksburg",
            "state": "MD",
            "region": null,
            "latitude": 39.75109006366705,
            "longitude": -74.9163889441714,
            "rentable_building_area": 61709
          },
          {
            "yardi_property_code": "1234-xyz",
            "fund_name": "Industrial Fund Example",
            "address": "1685 Dallas Centers",
            "city": "",
            "state": "",
            "region": "Mid Atlantic",
            "latitude": 7.3918,
            "longitude": 19.0792,
            "rentable_building_area": 255946
          },
          {
            "yardi_property_code": "1234-xyz",
            "fund_name": "Industrial Fund Example",
            "address": "22446 Davis Drive",
            "city": "Sterling",
            "state": "VA",
            "region": null,
            "latitude": 38.93472306299269,
            "longitude": -74.80990623545202,
            "rentable_building_area": 52954
          },
          {
            "yardi_property_code": "1234-xyz",
            "fund_name": "Industrial Fund Example",
            "address": "400 East Gude Drive",
            "city": "Rockville",
            "state": "MD",
            "region": null,
            "latitude": 39.663282552682254,
            "longitude": -75.947201400993,
            "rentable_building_area": 54764
          },
          {
            "yardi_property_code": "1234-xyz",
            "fund_name": "Industrial Fund Example",
            "address": "8200/8300 NW 93 STREET",
            "city": "MIAMI",
            "state": "FL",
            "region": "Southeast",
            "latitude": 25.543411363017974,
            "longitude": -78.95527875373685,
            "rentable_building_area": 223504
          },
          {
            "yardi_property_code": "1234-xyz",
            "fund_name": "Industrial Fund Example",
            "address": "30610 S KAVANAUGH RD",
            "city": "WILMINGTON",
            "state": "IL",
            "region": "Midwest",
            "latitude": 41.64677660379327,
            "longitude": -87.58660149008541,
            "rentable_building_area": 436656
          },
          {
            "yardi_property_code": "1234-xyz",
            "fund_name": "Industrial Fund Example",
            "address": "3323 NE 163RD ST",
            "city": "MIAMI",
            "state": "FL",
            "region": null,
            "latitude": 25.4934578375132,
            "longitude": -77.84042579451001,
            "rentable_building_area": 0
          },
          {
            "yardi_property_code": "1234-xyz",
            "fund_name": "Industrial Fund Example",
            "address": "24945 W DESIGN RD",
            "city": "WILMINGTON",
            "state": "IL",
            "region": "Midwest",
            "latitude": 41.33813060624936,
            "longitude": -89.87947575206734,
            "rentable_building_area": 111485
          },
          {
            "yardi_property_code": "1234-xyz",
            "fund_name": "Industrial Fund Example",
            "address": "3323 NE 163RD ST",
            "city": "MIAMI",
            "state": "FL",
            "region": null,
            "latitude": 25.94477683914324,
            "longitude": -78.91467252580705,
            "rentable_building_area": 164096
          },
          {
            "yardi_property_code": "1234-xyz",
            "fund_name": "Industrial Fund Example",
            "address": "3323 NE 163RD ST",
            "city": "MIAMI",
            "state": "FL",
            "region": null,
            "latitude": 26.345745643698812,
            "longitude": -79.17545296207068,
            "rentable_building_area": 53838
          },
          {
            "yardi_property_code": "1234-xyz",
            "fund_name": "Industrial Fund Example",
            "address": "3323 NE 163RD ST",
            "city": "MIAMI",
            "state": "FL",
            "region": null,
            "latitude": 26.083701313613467,
            "longitude": -76.8646205907853,
            "rentable_building_area": 127907
          },
          {
            "yardi_property_code": "1234-xyz",
            "fund_name": "Industrial Fund Example",
            "address": "6700 Hardeson Road",
            "city": "Everett",
            "state": "WA",
            "region": "West",
            "latitude": 47.73302033888585,
            "longitude": -121.32408188606121,
            "rentable_building_area": 103932
          },
          {
            "yardi_property_code": "1234-xyz",
            "fund_name": "Industrial Fund Example",
            "address": "1111 SW 30th Ave",
            "city": "Deerfield Beach",
            "state": "FL",
            "region": "Southeast",
            "latitude": 25.597921461378327,
            "longitude": -81.8098953606186,
            "rentable_building_area": 181816
          },
          {
            "yardi_property_code": "1234-xyz",
            "fund_name": "Industrial Fund Example",
            "address": "1600 NW 165th Street",
            "city": "Miami Gardens",
            "state": "FL",
            "region": "Southeast",
            "latitude": 25.539084401672365,
            "longitude": -77.9082099875262,
            "rentable_building_area": 78606
          },
          {
            "yardi_property_code": "1234-xyz",
            "fund_name": "Industrial Fund Example",
            "address": "2340 Cousteau Ct",
            "city": "Vista",
            "state": "CA",
            "region": "West",
            "latitude": 32.82933611714582,
            "longitude": -113.91203204168457,
            "rentable_building_area": 117923
          },
          {
            "yardi_property_code": "1234-xyz",
            "fund_name": "Industrial Fund Example",
            "address": "3000-3060 SW 2nd Avenue",
            "city": "Fort Lauderdale",
            "state": "FL",
            "region": "Southeast",
            "latitude": 26.604515720100707,
            "longitude": -78.17641842945854,
            "rentable_building_area": 94873
          },
          {
            "yardi_property_code": "1234-xyz",
            "fund_name": "Industrial Fund Example",
            "address": "55 Shepherds Lane",
            "city": "Totowa",
            "state": "NJ",
            "region": "Northeast",
            "latitude": 41.75372514154983,
            "longitude": -72.48803435788477,
            "rentable_building_area": 160812
          },
          {
            "yardi_property_code": "1234-xyz",
            "fund_name": "Industrial Fund Example",
            "address": "50 Jiffy Road",
            "city": "Franklin Township",
            "state": "NJ",
            "region": "Northeast",
            "latitude": 40.89230755316182,
            "longitude": -73.35431974451409,
            "rentable_building_area": 100760
          },
          {
            "yardi_property_code": "1234-xyz",
            "fund_name": "Industrial Fund Example",
            "address": "800-900 International Parkway",
            "city": "Sunrise",
            "state": "FL",
            "region": "Southeast",
            "latitude": 26.387328499137862,
            "longitude": -78.03396593909663,
            "rentable_building_area": 206916
          },
          {
            "yardi_property_code": "1234-xyz",
            "fund_name": "Industrial Fund Example",
            "address": "7207 North State Road 7",
            "city": "Parkland",
            "state": "FL",
            "region": "Southeast",
            "latitude": 26.27611870283428,
            "longitude": -78.1960576358828,
            "rentable_building_area": 0
          },
          {
            "yardi_property_code": "1234-xyz",
            "fund_name": "Industrial Fund Example",
            "address": "1150 Chapin Rd",
            "city": "Chapin",
            "state": "SC",
            "region": "Southeast",
            "latitude": 34.587203773917096,
            "longitude": -80.36827546182732,
            "rentable_building_area": 61791
          },
          {
            "yardi_property_code": "1234-xyz",
            "fund_name": "Industrial Fund Example",
            "address": "2121 NW 15th Avenue",
            "city": "Pompano",
            "state": "FL",
            "region": "Southeast",
            "latitude": 26.17692456668901,
            "longitude": -77.4523526500613,
            "rentable_building_area": 82571
          },
          {
            "yardi_property_code": "1234-xyz",
            "fund_name": "Industrial Fund Example",
            "address": "16363 NW 49th Avenue",
            "city": "Miami Gardens",
            "state": "FL",
            "region": "Southeast",
            "latitude": 25.980811386094068,
            "longitude": -77.03560863006143,
            "rentable_building_area": 44599
          },
          {
            "yardi_property_code": "1234-xyz",
            "fund_name": "Industrial Fund Example",
            "address": "1730 West 38th Place",
            "city": "Hialeah",
            "state": "FL",
            "region": "Southeast",
            "latitude": 25.226802547313753,
            "longitude": -80.40645567051527,
            "rentable_building_area": 37596
          },
          {
            "yardi_property_code": "1234-xyz",
            "fund_name": "Industrial Fund Example",
            "address": "20420 Century Boulevard",
            "city": "Germantown",
            "state": "MD",
            "region": null,
            "latitude": 39.39841314755936,
            "longitude": -76.42708873695443,
            "rentable_building_area": 42194
          },
          {
            "yardi_property_code": "1234-xyz",
            "fund_name": "Industrial Fund Example",
            "address": "226 W 97th & 2568 Broadway",
            "city": "Manhattan",
            "state": "NY",
            "region": "Northeast",
            "latitude": 40.92067197759047,
            "longitude": -71.20159727260584,
            "rentable_building_area": 0
          },
          {
            "yardi_property_code": "1234-xyz",
            "fund_name": "Industrial Fund Example",
            "address": "16100 NW 49th Avenue",
            "city": "Miami Gardens",
            "state": "FL",
            "region": "Southeast",
            "latitude": 26.45288028513956,
            "longitude": -78.30698186967899,
            "rentable_building_area": 123566
          },
          {
            "yardi_property_code": "1234-xyz",
            "fund_name": "Industrial Fund Example",
            "address": "7719 Lucie Via",
            "city": "",
            "state": "",
            "region": "Southeast",
            "latitude": 5.4761,
            "longitude": -118.5901,
            "rentable_building_area": 0
          },
          {
            "yardi_property_code": "1234-xyz",
            "fund_name": "Industrial Fund Example",
            "address": "20400 Century Boulevard",
            "city": "Germantown",
            "state": "MD",
            "region": null,
            "latitude": 39.19175963647259,
            "longitude": -75.99548463511984,
            "rentable_building_area": 0
          },
          {
            "yardi_property_code": "1234-xyz",
            "fund_name": "Industrial Fund Example",
            "address": "20430 Century Boulevard",
            "city": "Germantown",
            "state": "MD",
            "region": null,
            "latitude": 39.34800433704015,
            "longitude": -75.78977732794776,
            "rentable_building_area": 35183
          },
          {
            "yardi_property_code": "1234-xyz",
            "fund_name": "Industrial Fund Example",
            "address": "20440 Century Boulevard",
            "city": "Germantown",
            "state": "MD",
            "region": null,
            "latitude": 39.61711921575748,
            "longitude": -74.65186850692888,
            "rentable_building_area": 70560
          },
          {
            "yardi_property_code": "1234-xyz",
            "fund_name": "Industrial Fund Example",
            "address": "3880 NW 124th Ave",
            "city": "Coral Springs",
            "state": "FL",
            "region": "Southeast",
            "latitude": 26.35631573005191,
            "longitude": -78.90436679425507,
            "rentable_building_area": 49990
          },
          {
            "yardi_property_code": "1234-xyz",
            "fund_name": "Industrial Fund Example",
            "address": "14420-14434 Albemarle Point Place",
            "city": "Chantilly",
            "state": "VA",
            "region": "Mid Atlantic",
            "latitude": 39.52163608136411,
            "longitude": -74.54091440303219,
            "rentable_building_area": 292145
          },
          {
            "yardi_property_code": "1234-xyz",
            "fund_name": "Industrial Fund Example",
            "address": "22530 Gateway Center Drive",
            "city": "Clarksburg",
            "state": "MD",
            "region": null,
            "latitude": 39.25550188042204,
            "longitude": -76.93095778865691,
            "rentable_building_area": 58457
          },
          {
            "yardi_property_code": "1234-xyz",
            "fund_name": "Industrial Fund Example",
            "address": "22610 Gateway Center Drive",
            "city": "Clarksburg",
            "state": "MD",
            "region": null,
            "latitude": 38.49258737063981,
            "longitude": -77.05495580055099,
            "rentable_building_area": 25038
          },
          {
            "yardi_property_code": "1234-xyz",
            "fund_name": "Industrial Fund Example",
            "address": "12001 Indian Creek Court",
            "city": "Beltsville",
            "state": "MD",
            "region": null,
            "latitude": 38.880786082779345,
            "longitude": -77.99885616021545,
            "rentable_building_area": 18050
          },
          {
            "yardi_property_code": "1234-xyz",
            "fund_name": "Industrial Fund Example",
            "address": "3680-3863 Centerview Drive",
            "city": "Chantilly",
            "state": "VA",
            "region": "Mid Atlantic",
            "latitude": 38.729295382598316,
            "longitude": -73.94196663405387,
            "rentable_building_area": 394206
          },
          {
            "yardi_property_code": "1234-xyz",
            "fund_name": "Industrial Fund Example",
            "address": "4533 Adele Plaza",
            "city": "",
            "state": "",
            "region": "Mid Atlantic",
            "latitude": 29.1233,
            "longitude": 129.9819,
            "rentable_building_area": 296363
          },
          {
            "yardi_property_code": "1234-xyz",
            "fund_name": "Industrial Fund Example",
            "address": "Business Logistics Park - Building 8",
            "city": "Wilmington",
            "state": "IL",
            "region": null,
            "latitude": -80.6598,
            "longitude": -57.7069,
            "rentable_building_area": 0
          },
          {
            "yardi_property_code": "1234-xyz",
            "fund_name": "Industrial Fund Example",
            "address": "29700 S GRAASKAMP RD",
            "city": "WILMINGTON",
            "state": "IL",
            "region": "Midwest",
            "latitude": 41.550938051548144,
            "longitude": -88.3643274281196,
            "rentable_building_area": 1080287
          },
          {
            "yardi_property_code": "1234-xyz",
            "fund_name": "Industrial Fund Example",
            "address": "3323 NE 163rd St.",
            "city": "Miami",
            "state": "FL",
            "region": null,
            "latitude": 25.915917618781613,
            "longitude": -77.73489069632902,
            "rentable_building_area": 114777
          },
          {
            "yardi_property_code": "1234-xyz",
            "fund_name": "Industrial Fund Example",
            "address": "3323 NE 163RD ST",
            "city": "MIAMI",
            "state": "FL",
            "region": null,
            "latitude": 25.876385863938598,
            "longitude": -79.25280950367592,
            "rentable_building_area": 52439
          },
          {
            "yardi_property_code": "1234-xyz",
            "fund_name": "Industrial Fund Example",
            "address": "11 Enterprise Avenue North",
            "city": "Secaucus",
            "state": "NJ",
            "region": "Northeast",
            "latitude": 40.94837061291705,
            "longitude": -71.62951152603381,
            "rentable_building_area": 60590
          },
          {
            "yardi_property_code": "1234-xyz",
            "fund_name": "Industrial Fund Example",
            "address": "35 O'Brien Street",
            "city": "Kearny",
            "state": "NJ",
            "region": "Northeast",
            "latitude": 40.3161721194394,
            "longitude": -70.6266923125904,
            "rentable_building_area": 136334
          },
          {
            "yardi_property_code": "1234-xyz",
            "fund_name": "Industrial Fund Example",
            "address": "9950 NW 25th St",
            "city": "Miami",
            "state": "FL",
            "region": "Southeast",
            "latitude": 26.386416351701733,
            "longitude": -78.4157374465209,
            "rentable_building_area": 101860
          },
          {
            "yardi_property_code": "1234-xyz",
            "fund_name": "Industrial Fund Example",
            "address": "3900 Coral Ridge Drive",
            "city": "Coral Springs",
            "state": "FL",
            "region": "Southeast",
            "latitude": 26.70749409046591,
            "longitude": -79.92043092381606,
            "rentable_building_area": 68759
          },
          {
            "yardi_property_code": "1234-xyz",
            "fund_name": "Industrial Fund Example",
            "address": "555-589 Monster Road SW",
            "city": "Renton",
            "state": "WA",
            "region": "West",
            "latitude": 47.382476079836415,
            "longitude": -120.44263138683853,
            "rentable_building_area": 227162
          },
          {
            "yardi_property_code": "1234-xyz",
            "fund_name": "Industrial Fund Example",
            "address": "15325 Stafford Street",
            "city": "City of Industry",
            "state": "CA",
            "region": "West",
            "latitude": 34.05374566368634,
            "longitude": -118.94480959983497,
            "rentable_building_area": 102711
          },
          {
            "yardi_property_code": "1234-xyz",
            "fund_name": "Industrial Fund Example",
            "address": "1121 NW 31st Avenue",
            "city": "Pompano Beach",
            "state": "FL",
            "region": "Southeast",
            "latitude": 26.51819240331506,
            "longitude": -75.60603604507324,
            "rentable_building_area": 66156
          },
          {
            "yardi_property_code": "1234-xyz",
            "fund_name": "Industrial Fund Example",
            "address": "3141 SW 10th St",
            "city": "Pompano Beach",
            "state": "FL",
            "region": "Southeast",
            "latitude": 26.308873702216957,
            "longitude": -79.16706273891552,
            "rentable_building_area": 89860
          },
          {
            "yardi_property_code": "1234-xyz",
            "fund_name": "Industrial Fund Example",
            "address": "182-20 Liberty Ave",
            "city": "Jamaica",
            "state": "NY",
            "region": "Northeast",
            "latitude": 41.141071050021466,
            "longitude": -71.19206753912295,
            "rentable_building_area": 243074
          },
          {
            "yardi_property_code": "1234-xyz",
            "fund_name": "Industrial Fund Example",
            "address": "1301 NW 3 Street",
            "city": "Deerfield Beach",
            "state": "FL",
            "region": "Southeast",
            "latitude": 26.107829996126604,
            "longitude": -80.523857848741,
            "rentable_building_area": 111134
          },
          {
            "yardi_property_code": "1234-xyz",
            "fund_name": "Industrial Fund Example",
            "address": "6649 Catharpin Road",
            "city": "Gainsville",
            "state": "VA",
            "region": "Mid Atlantic",
            "latitude": 38.298096740589195,
            "longitude": -77.19383396608958,
            "rentable_building_area": 0
          },
          {
            "yardi_property_code": "1234-xyz",
            "fund_name": "Industrial Fund Example",
            "address": "3070 US Highway 1 South",
            "city": "Saint Augustine",
            "state": "FL",
            "region": "Southeast",
            "latitude": 29.14092368180583,
            "longitude": -77.80500611576414,
            "rentable_building_area": 0
          },
          {
            "yardi_property_code": "1234-xyz",
            "fund_name": "Industrial Fund Example",
            "address": "5889 Greenwood Plaza Blvd",
            "city": "Denver",
            "state": "CO",
            "region": "Mountain",
            "latitude": 39.06822090952865,
            "longitude": -103.63361319570393,
            "rentable_building_area": 0
          },
          {
            "yardi_property_code": "1234-xyz",
            "fund_name": "Industrial Fund Example",
            "address": "225 Radio Drive",
            "city": "Woodbury",
            "state": "MN",
            "region": "Midwest",
            "latitude": 45.39606093584857,
            "longitude": -92.51110877599862,
            "rentable_building_area": 0
          },
          {
            "yardi_property_code": "1234-xyz",
            "fund_name": "Industrial Fund Example",
            "address": "435 Winthrop Ave",
            "city": "Andover",
            "state": "MA",
            "region": "Northeast",
            "latitude": 42.884606362439314,
            "longitude": -72.362153946772,
            "rentable_building_area": 0
          },
          {
            "yardi_property_code": "1234-xyz",
            "fund_name": "Industrial Fund Example",
            "address": "11200 San Jose Blvd",
            "city": "Jacksonville",
            "state": "FL",
            "region": "Southeast",
            "latitude": 30.230539669984772,
            "longitude": -80.85251241350726,
            "rentable_building_area": 0
          },
          {
            "yardi_property_code": "1234-xyz",
            "fund_name": "Industrial Fund Example",
            "address": "225 Radio Drive",
            "city": "Woodbury",
            "state": "MN",
            "region": null,
            "latitude": 44.656125502086205,
            "longitude": -92.50507138379163,
            "rentable_building_area": 0
          },
          {
            "yardi_property_code": "1234-xyz",
            "fund_name": "Industrial Fund Example",
            "address": "225 Radio Drive",
            "city": "Woodbury",
            "state": "MN",
            "region": null,
            "latitude": 44.69545137848098,
            "longitude": -91.39609527127554,
            "rentable_building_area": 0
          },
          {
            "yardi_property_code": "1234-xyz",
            "fund_name": "Industrial Fund Example",
            "address": "245-365 Radio Drive",
            "city": "Woodbury",
            "state": "MN",
            "region": "Midwest",
            "latitude": 45.14026233695184,
            "longitude": -92.91383984791885,
            "rentable_building_area": 0
          },
          {
            "yardi_property_code": "1234-xyz",
            "fund_name": "Industrial Fund Example",
            "address": "20421 Watsica Knolls",
            "city": "",
            "state": "",
            "region": null,
            "latitude": -38.2093,
            "longitude": 129.9511,
            "rentable_building_area": 0
          },
          {
            "yardi_property_code": "1234-xyz",
            "fund_name": "Industrial Fund Example",
            "address": "2657 N Monroe Street",
            "city": "Tallahassee",
            "state": "FL",
            "region": "Southeast",
            "latitude": 30.897200435355728,
            "longitude": -82.59795360384457,
            "rentable_building_area": 0
          },
          {
            "yardi_property_code": "1234-xyz",
            "fund_name": "Industrial Fund Example",
            "address": "375 Village Drive",
            "city": "Carol Stream",
            "state": "IL",
            "region": "Midwest",
            "latitude": 42.13434903008291,
            "longitude": -86.30239392510254,
            "rentable_building_area": 78912
          },
          {
            "yardi_property_code": "1234-xyz",
            "fund_name": "Industrial Fund Example",
            "address": "2875 NW 77th Ave",
            "city": "Miami",
            "state": "FL",
            "region": "Southeast",
            "latitude": 25.084747720374054,
            "longitude": -78.49681249864229,
            "rentable_building_area": 74903
          },
          {
            "yardi_property_code": "1234-xyz",
            "fund_name": "Industrial Fund Example",
            "address": "935 NW 31st Avenue",
            "city": "Pompano Beach",
            "state": "FL",
            "region": "Southeast",
            "latitude": 26.222384019061863,
            "longitude": -79.46913190401075,
            "rentable_building_area": 50809
          },
          {
            "yardi_property_code": "1234-xyz",
            "fund_name": "Industrial Fund Example",
            "address": "3022 Hennepin Ave",
            "city": "Minneapolis",
            "state": "MN",
            "region": "Midwest",
            "latitude": 44.88111874749351,
            "longitude": -91.95917803713051,
            "rentable_building_area": 0
          }
        ]
      },
      "dataUpdateCount": 1,
      "dataUpdatedAt": 1742303433546,
      "error": null,
      "errorUpdateCount": 0,
      "errorUpdatedAt": 0,
      "fetchFailureCount": 0,
      "fetchFailureReason": null,
      "fetchMeta": null,
      "isInvalidated": false,
      "status": "success",
      "fetchStatus": "idle"
    }
  }
]